[{"id": "6132","name": "Слуховое окно ","kind": "Landmark","address": "16-ая линия В.О., д. 19.","lat": "59.93677","lng": "30.269364"},{"id": "6082","name": "Адмиралтейский храм ","kind": "Landmark","address": "пр. Адмиралтейский, д. 1 / Дворцовый проезд, д.2 .","lat": "59.939517","lng": "30.309807"},{"id": "6073","name": "Путиловский храм ","kind": "Landmark","address": "пр. Стачек, д. 48 А.","lat": "59.883647","lng": "30.267521"},{"id": "6030","name": "Дом","kind": "Landmark","address": "пр. Чкаловский, д. 50.","lat": "59.967579","lng": "30.299725"},{"id": "6029","name": "Дом в старорусском стиле","kind": "Landmark","address": "пр. Чкаловский, д. 31.","lat": "59.966948","lng": "30.301109"},{"id": "6028","name": "Маленький замок","kind": "Landmark","address": "ул. Ленина, д. 49.","lat": "59.965651","lng": "30.296599"},{"id": "6027","name": "Газгольдер газового общества","kind": "Landmark","address": "ул. Газовая, д. 12.","lat": "59.967146","lng": "30.294057"},{"id": "6026","name": "Дом в стиле Диснеевского замка","kind": "Landmark","address": "ул. Барочная, д. 2.","lat": "59.964746","lng": "30.285766"},{"id": "6025","name": "Дом с башней на Зеленина","kind": "Landmark","address": "ул. Большая Зеленина, д. 24У.","lat": "59.963404","lng": "30.287517"},{"id": "6023","name": "Дом эмира бухарского","kind": "Landmark","address": "пр. Каменноостровский, д. 44Б.","lat": "59.968227","lng": "30.307756"},{"id": "6021","name": "Дом на Литераторов","kind": "Landmark","address": "ул. Литераторов, д. 17.","lat": "59.969362","lng": "30.312023"},{"id": "6015","name": "Старейшая гомеопатическая аптека","kind": "Landmark","address": "пр. Невский, д. 50.","lat": "59.934483","lng": "30.334867"},{"id": "5990","name": "Пилястры двойные (с тенью) ","kind": "Landmark","address": "Кадетская линия В.О., д. 1.","lat": "59.939023","lng": "30.293913"},{"id": "5980","name": "Дом с совами: Петроградское средневековье (Санкт-Петербург)","kind": "Landmark","address": "Большой проспект П.С., д. 44.","lat": "59.959169","lng": "30.301302"},{"id": "5912","name": "Башня «Ленэнерго»","kind": "Landmark","address": "пл. Конституции, д. 1.","lat": "59.850459","lng": "30.304046"},{"id": "5898","name": "Свадебные кольца","kind": "Landmark","address": "ул. 1-я Красноармейская, д. 6.","lat": "59.915792","lng": "30.315608"},{"id": "5877","name": "Кивера на Адмиралтействе ","kind": "Landmark","address": "пр. Адмиралтейский, д. 1.","lat": "59.93916","lng": "30.310473"},{"id": "5858","name": "Дионис и Дева","kind": "Landmark","address": "ул. Большая Пушкарская, д. 3.","lat": "59.954651","lng": "30.297474"},{"id": "5850","name": "Дача Ланских","kind": "Landmark","address": "пр.Энгельса.4.","lat": "59.999624","lng": "30.326801"},{"id": "5842","name": "Легенда Михайловского замка","kind": "Landmark","address": "ул. Садовая, д. 2.","lat": "59.940257","lng": "30.337538"},{"id": "5799","name": "Особняк с саламандрами","kind": "Landmark","address": "Набережная реки Крестовки, д. 12.","lat": "59.976251","lng": "30.274716"},{"id": "5795","name": "Морской собор в Кронштадте","kind": "Landmark","address": "г. Кронштадт, Якорная площадь.","lat": "59.991715","lng": "29.77701"},{"id": "5678","name": "Дом Вавельберга","kind": "Landmark","address": "ул. Малая Морская, д. 1.","lat": "59.9363","lng": "30.314422"},{"id": "5641","name": "Александрийский парк 'Электростанция' ","kind": "Landmark","address": "г. Петродворец, ул. Парковая, д. 1.","lat": "59.858516","lng": "29.934384"},{"id": "5622","name": "Ажурная Башня","kind": "Landmark","address": "Набережная реки Мойки, д. 73.","lat": "59.933109","lng": "30.314739"},{"id": "5613","name": "Дом с Египетским богами","kind": "Landmark","address": "ул. 1-я Никитинская. д. 36.","lat": "60.018147","lng": "30.288119"},{"id": "5608","name": "«Люди свободного труда» на фасаде Федерального дома","kind": "Landmark","address": "ул. Тверская, д. 31 / пр. Суворовский, д. 62.","lat": "59.946274","lng": "30.389329"},{"id": "5552","name": "Форт Тотлебен","kind": "Landmark","address": "г. Кронштадт.","lat": "60.058894","lng": "29.721517"},{"id": "5534","name": "Карильон на Крестовском","kind": "Landmark","address": "Северная дорога, д. 15А.","lat": "59.975181","lng": "30.216672"},{"id": "5476","name": "Загадочный горельеф","kind": "Landmark","address": "Набережная реки Фонтанки, д. 131 .","lat": "59.91931","lng": "30.305744"},{"id": "5475","name": "Дьявольская лестница","kind": "Landmark","address": "ул.Большая Подъяческая, д.28.","lat": "59.921268","lng": "30.305923"},{"id": "5470","name": "Стадион им. Кирова","kind": "Landmark","address": "Южная дорога, д. 25.","lat": "59.972744","lng": "30.222457"},{"id": "5140","name": "Особняк Зигеля","kind": "Landmark","address": "ул. Марата, д. 63.","lat": "59.921674","lng": "30.345764"},{"id": "5105","name": "Дом «с конями» на Коломенской","kind": "Landmark","address": "ул. Коломенская, д. 45.","lat": "59.920462","lng": "30.349042"},{"id": "5078","name": "'Дом Ленсовета' на могильных плитах","kind": "Landmark","address": "Набережная реки Карповки, д. 13.","lat": "59.968479","lng": "30.31294"},{"id": "5014","name": "Александровские ворота","kind": "Landmark","address": "ул. Химиков, д. 18.","lat": "59.968394","lng": "30.472948"},{"id": "4923","name": "Очень странный храм","kind": "Landmark","address": "пос. Понтонный, Фанерный пер., д. 11А.","lat": "59.786384","lng": "30.61957"},{"id": "4827","name": "Свято-Иоанновский монастырь","kind": "Landmark","address": "Набережная реки Карповки, д. 45.","lat": "59.970434","lng": "30.300372"},{"id": "4768","name": "Детский город","kind": "Landmark","address": "пр-т Энгельса.","lat": "60.05866","lng": "30.333976"},{"id": "4761","name": "Счастливый палец  атланта","kind": "Landmark","address": "ул. Миллионная, д. 35.","lat": "59.941159","lng": "30.317692"},{"id": "4713","name": "Дом-корабль","kind": "Landmark","address": "Туполевская улица.","lat": "60.002076","lng": "30.266212"},{"id": "4712","name": "Дом-треугольник","kind": "Landmark","address": "Набережная канала Грибоедова, д. 50-54.","lat": "59.927387","lng": "30.315832"},{"id": "4707","name": "Дом-ларец","kind": "Landmark","address": "ул. Писарева, д. 2.","lat": "59.928411","lng": "30.285864"},{"id": "4693","name": "Дом со старушкой-привидением","kind": "Landmark","address": "пр. Литейный, д. 42.","lat": "59.938157","lng": "30.349097"},{"id": "4690","name": "Дом пиковой дамы","kind": "Landmark","address": "ул. Гороховая, д. 10.","lat": "59.934734","lng": "30.312919"},{"id": "4684","name": "Особняк Э.Э. Бремме","kind": "Landmark","address": "12 линия В.О., д. 41.","lat": "59.943264","lng": "30.268608"},{"id": "4657","name": "Иоган Гутенберг","kind": "Landmark","address": "ул. Гражданская улица, д. 13 .","lat": "59.928266","lng": "30.312293"},{"id": "4498","name": "Маки и подсолнухи","kind": "Landmark","address": "15-я линия В.О., д. 70.","lat": "59.944134","lng": "30.262661"},{"id": "4291","name": "Дом - ножовка","kind": "Landmark","address": "ул. Можайская, д. 34.","lat": "59.914962","lng": "30.329307"},{"id": "4168","name": "Александр Невский. Дом.","kind": "Landmark","address": "ул. Тележная, д. 13А.","lat": "59.92596","lng": "30.374081"},{"id": "4147","name": "Арка «декорация»","kind": "Landmark","address": "Набережная канала Грибоедова, д. 126 .","lat": "59.920943","lng": "30.294506"},{"id": "4145","name": "Дом Веге","kind": "Landmark","address": "Набережная Крюкова канала, д. 14.","lat": "59.923243","lng": "30.297581"},{"id": "4133","name": "Девушки и розы","kind": "Landmark","address": "пр. Каменноостровский, д. 13.","lat": "59.959721","lng": "30.317919"},{"id": "4092","name": "Госдача К-3","kind": "Landmark","address": "Каменный остров.","lat": "59.981051","lng": "30.291027"},{"id": "4008","name": "Крест (домовая церковь Николаевского дворца)","kind": "Landmark","address": "пл. Труда, д. 4.","lat": "59.932365","lng": "30.292799"},{"id": "4002","name": "Водонапорная башня завода «Красный гвоздильщик»","kind": "Landmark","address": "25 линия В.О., д. 2.","lat": "59.928243","lng": "30.26497"},{"id": "3989","name": "Церковь Святой Великомученицы Екатерины","kind": "Landmark","address": "Кадетская линия В.О, д. 27.","lat": "59.945837","lng": "30.285972"},{"id": "3975","name": "Египетские Атланты","kind": "Landmark","address": "Дворцовая набережная, д. 8.","lat": "59.944943","lng": "30.32513"},{"id": "3964","name": "Царский павильон Витебского вокзала","kind": "Landmark","address": "пр. Загородный. д. 52А.","lat": "59.917974","lng": "30.330619"},{"id": "3900","name": "Дом Лидваля","kind": "Landmark","address": "пр. Каменноостровский, д. 1-3.","lat": "59.956904","lng": "30.321554"},{"id": "3855","name": "НЛО","kind": "Landmark","address": "пр. Невский, д. 192.","lat": "59.924305","lng": "30.385296"},{"id": "3850","name": "Мальчишки с фонарем (Особняк М. К. Покатиловой)","kind": "Landmark","address": "пр. Каменноостровский, д. 48.","lat": "59.970218","lng": "30.307028"},{"id": "3823","name": "Дом Бубыря на Стремянной (или дом с грибами)","kind": "Landmark","address": "ул. Стремянная, д. 11.","lat": "59.930749","lng": "30.351468"},{"id": "3813","name": "Дом Радькова-Рожнова","kind": "Landmark","address": "ул. Пестеля, д. 13-15.","lat": "59.941407","lng": "30.343159"},{"id": "3808","name": "Последняя квартира Пушкина","kind": "Landmark","address": "Набережная реки Мойки, д. 12.","lat": "59.941072","lng": "30.321348"},{"id": "3776","name": "Церковь Петра апостола","kind": "Landmark","address": "ул. Подвойского, д. 1.","lat": "59.907922","lng": "30.46062"},{"id": "3774","name": "Поморский старообрядческий храм","kind": "Landmark","address": "ул. Тверская, д. 8.","lat": "59.947032","lng": "30.381086"},{"id": "3773","name": "Церковь Симеона Богоприимца и Анны Пророчицы ","kind": "Landmark","address": "ул. Белинского, д. 4.","lat": "59.938435","lng": "30.346036"},{"id": "3769","name": "Пантелеймоновская церковь","kind": "Landmark","address": "Соляной переулок, д. 17.","lat": "59.942876","lng": "30.34076"},{"id": "3763","name": "Собор","kind": "Landmark","address": "ул. Миргородская, д. 1б.","lat": "59.926418","lng": "30.368563"},{"id": "3752","name": "'Проклятый' отель","kind": "Landmark","address": "Набережная реки Карповки, д. 37.","lat": "59.970222","lng": "30.304603"},{"id": "3723","name": "Государственный мемориальный музей А.В. Суворова","kind": "Landmark","address": "ул. Кирочная, д. 43.","lat": "59.943178","lng": "30.376576"},{"id": "3667","name": "Бункер адмирала Трибуца","kind": "Landmark","address": "ул. Инструментальная, д. 1.","lat": "59.973383","lng": "30.325656"},{"id": "3635","name": "Колесо","kind": "Landmark","address": "пос. Московская Славянка, д. 17а.","lat": "59.747883","lng": "30.497076"},{"id": "3634","name": "Часовня Божией Матери Всех Скорбящих Радости","kind": "Landmark","address": "пр. Обуховской обороны, д. 24.","lat": "59.912477","lng": "30.407299"},{"id": "3628","name": "'Кулич и пасха'","kind": "Landmark","address": "пр. Обуховской Обороны, д. 235 .","lat": "59.863342","lng": "30.47257"},{"id": "3622","name": "Еще один ЯКОРЬ (Городской сиротский дом им. цесаревича Николая)","kind": "Landmark","address": "8-ая линия В.О., д. 29.","lat": "59.939971","lng": "30.279371"},{"id": "3620","name": "Типография Академии наук","kind": "Landmark","address": "9-я линия В.О., д.12 / Большой пр. В.О., д. 28.","lat": "59.937854","lng": "30.280758"},{"id": "3579","name": "Особняк Брусницына","kind": "Landmark","address": "Кожевенная линия, д. 27.","lat": "59.922801","lng": "30.249833"},{"id": "3570","name": "Дом М.К.Кугушевой на Каменном острове","kind": "Landmark","address": "Боковая аллея, д.1.","lat": "59.976801","lng": "30.291928"},{"id": "3556","name": "Торговый дом Мертенса","kind": "Landmark","address": "Невский проспект, д. 21.","lat": "59.935519","lng": "30.32223"},{"id": "3478","name": "Тайны Пале Рояля","kind": "Landmark","address": "ул. Пушкинская, д. 20.","lat": "59.927292","lng": "30.356409"},{"id": "3456","name": "Котельная ужасов","kind": "Landmark","address": "ул. Пушкинская, д. 18.","lat": "59.927955","lng": "30.356768"},{"id": "3454","name": "Вавиловский дом","kind": "Landmark","address": "Невский проспект, д. 11.","lat": "59.93616","lng": "30.316371"},{"id": "3452","name": "Дом","kind": "Landmark","address": "Невский проспект, д. 90 - 92.","lat": "59.932338","lng": "30.352419"},{"id": "3446","name": "Зеленый дом-дворец в сердце Петроградки","kind": "Landmark","address": "ул. Ленина, д. 8.","lat": "59.959796","lng": "30.309679"},{"id": "3438","name": "Здание детского сада № 19 Центрального района","kind": "Landmark","address": "пер. Джамбула, д. 8.","lat": "59.925953","lng": "30.334706"},{"id": "3359","name": "Орнитологическая вышка ","kind": "Landmark","address": "30.192718,60.001873.","lat": "60.001873","lng": "30.192718"},{"id": "3270","name": "Никольский рынок (уходящая натура)","kind": "Landmark","address": "ул. Садовая, д. 62.","lat": "59.920546","lng": "30.300687"},{"id": "3205","name": "Вальдорфская школа в Дачном","kind": "Landmark","address": "Бульвар Новаторов, д. 12.","lat": "59.849668","lng": "30.270845"},{"id": "3046","name": "Ограда с бюстами негров в белых чалмах","kind": "Landmark","address": "Конногвардейский бульвар, д. 7.","lat": "59.933967","lng": "30.300385"},{"id": "3003","name": "Дом русских писателей","kind": "Landmark","address": "Красноградский переулок, д. 5.","lat": "59.926258","lng": "30.306822"},{"id": "2901","name": "Дача Громова в Лопухинском саду","kind": "Landmark","address": "ул. Академика Павлова, д. 13.","lat": "59.976256","lng": "30.305448"},{"id": "2887","name": "Туалет вместо автобуса","kind": "Landmark","address": "Биржевой проезд (также был замечен и на Дворцовой площади).","lat": "59.942674","lng": "30.303732"},{"id": "2873","name": "Дом с совой","kind": "Landmark","address": "Малый проспект П.С., д. 26-28.","lat": "59.95675","lng": "30.294264"},{"id": "2849","name": "Вечные стражи","kind": "Landmark","address": "Набережная реки Карповки, д. 30.","lat": "59.969648","lng": "30.301731"},{"id": "2820","name": "Дом из фильма 'Питер FM'","kind": "Landmark","address": "Набережная реки Фонтанки, д. 159.","lat": "59.916861","lng": "30.295045"},{"id": "2819","name": "Дом Гильзе ван дер Пальса","kind": "Landmark","address": "пр. Английский, д. 8-10.","lat": "59.926607","lng": "30.283421"},{"id": "2818","name": "Дом Мурузи","kind": "Landmark","address": "пр. Литейный, д. 24.","lat": "59.94239","lng": "30.349609"},{"id": "2817","name": "Башня Вячеслава Иванова","kind": "Landmark","address": "ул. Таврическая, д. 35.","lat": "59.943566","lng": "30.378014"},{"id": "2816","name": "Демутов трактир","kind": "Landmark","address": "Набережная реки Мойки, д. 40.","lat": "59.937242","lng": "30.320953"},{"id": "2815","name": "Где живет Карлсон в Петербурге?","kind": "Landmark","address": "Набережная реки Фонтанки, д. 50.","lat": "59.930627","lng": "30.341875"},{"id": "2814","name": "Красный треугольник","kind": "Landmark","address": "Набережная Обводного канала, д.136-138.","lat": "59.908525","lng": "30.285352"},{"id": "2813","name": "Дом-пряник на Колокольной улице","kind": "Landmark","address": "ул. Колокольная, д. 11.","lat": "59.928171","lng": "30.35204"},{"id": "2798","name": "Дом-колбаса","kind": "Landmark","address": "ул. Бабушкина, д. 61 .","lat": "59.87924","lng": "30.436323"},{"id": "2787","name": "Дом скалолазов с 'летящей девушкой'","kind": "Landmark","address": "пр. Мориса Тореза, д. 64.","lat": "60.010641","lng": "30.346431"},{"id": "2775","name": "Сладкая парочка","kind": "Landmark","address": "Набережная канала Грибоедова, д. 24.","lat": "59.93323","lng": "30.327726"},{"id": "2751","name": "Храм Успения Пресвятой Богородицы","kind": "Landmark","address": "пр. Малоохтинский, д. 52.","lat": "59.933041","lng": "30.403822"},{"id": "2750","name": "Дом-улыбака","kind": "Landmark","address": "пр. Солидарности, д. 23.","lat": "59.914222","lng": "30.496412"},{"id": "2746","name": "Дом с кентавром","kind": "Landmark","address": "ул. Рентгена, д. 9.","lat": "59.96385","lng": "30.322192"},{"id": "2741","name": "Дом с шпицами","kind": "Landmark","address": "5-я линия В.О., д. 46.","lat": "59.944634","lng": "30.279648"},{"id": "2690","name": "Крылатые львы на Манежной площади","kind": "Landmark","address": "ул. Караванная, д. 12.","lat": "59.935849","lng": "30.341407"},{"id": "2659","name": "Дом с дырками","kind": "Landmark","address": "ул. Маяковского, д. 4.","lat": "59.932843","lng": "30.353831"},{"id": "2641","name": "Дом - стена в новостройках","kind": "Landmark","address": "пр. Коломяжский, д. 33.","lat": "60.013326","lng": "30.294982"},{"id": "2639","name": "Железнодорожная станция Шувалово","kind": "Landmark","address": "ул. Старо-Орловская. д. 2.","lat": "60.047461","lng": "30.298189"},{"id": "2630","name": "Самая маленькая питерская картинная галерея","kind": "Landmark","address": "Елагин остров.","lat": "59.980625","lng": "30.27369"},{"id": "2618","name": "Орлиное гнездо","kind": "Landmark","address": "ул. Куйбышева, д. 36 / ул. Чапаева, д. 2.","lat": "59.957818","lng": "30.332065"},{"id": "2608","name": "Водонапорная башня с жилыми помещениями городка Сан-Галли","kind": "Landmark","address": "ул. Ремесленная, д. 6.","lat": "59.95744","lng": "30.270997"},{"id": "2603","name": "Дом с беременными кариатидами","kind": "Landmark","address": "Переулок Ульяны Громовой, д. 4.","lat": "59.93415","lng": "30.361193"},{"id": "2581","name": "Крепостная стена в центре города.","kind": "Landmark","address": "ул. Миргородская, д. 1.","lat": "59.926288","lng": "30.368425"},{"id": "2576","name": "Церковь в Зените","kind": "Landmark","address": "пр. Королёва, д. 7.","lat": "60.010294","lng": "30.290703"},{"id": "2544","name": "Зимний дворец Петра I","kind": "Landmark","address": "Дворцовая набережная, д. 32.","lat": "59.942678","lng": "30.318123"},{"id": "2525","name": "Павильоны разводного механизма ","kind": "Landmark","address": "Рижский проспект, д. 53 .","lat": "59.912986","lng": "30.263451"},{"id": "2453","name": "Шапель","kind": "Landmark","address": "г. Пушкин, Александровский парк.","lat": "59.718231","lng": "30.38862"},{"id": "2420","name": "Пушкарские бани","kind": "Landmark","address": "ул. Большая Пушкарская, д. 22.","lat": "59.958061","lng": "30.302223"},{"id": "2414","name": "Дом  'ЖеДеПом.'","kind": "Landmark","address": "Университетская набережная, д. 9А.","lat": "59.940091","lng": "30.299914"},{"id": "2413","name": "Еще один 'дом - стена'","kind": "Landmark","address": "Набережная  реки Фонтанки, д. 126.","lat": "59.917917","lng": "30.305987"},{"id": "2375","name": "Первая химическая лаборатория М. Ломоносова","kind": "Landmark","address": "2-я линия В.О., д. 41-45 (двор).","lat": "59.945774","lng": "30.283667"},{"id": "2341","name": "Замок во дворе","kind": "Landmark","address": "ул. Мичуринская, д. 9.","lat": "59.95534","lng": "30.328516"},{"id": "2314","name": "Аптека утопленников","kind": "Landmark","address": "Большой проспект П.С., д. 2 / Ждановская набережная, д. 1.","lat": "59.952689","lng": "30.290506"},{"id": "2264","name": "Дом на воде","kind": "Landmark","address": "Ждановская набережная, д. 2а.","lat": "59.952526","lng": "30.289154"},{"id": "2259","name": "'Умницы и красавицы'","kind": "Landmark","address": "ул. Социалистическая, д. 14.","lat": "59.922415","lng": "30.343181"},{"id": "2251","name": "Дом Корнилова М.Д. ","kind": "Landmark","address": "Средний проспект В.О., д. 45.","lat": "59.941867","lng": "30.27404"},{"id": "2159","name": "Молочная ферма Бенуа","kind": "Landmark","address": "пр. Тихорецкий, д. 17.","lat": "60.0193","lng": "30.370162"},{"id": "2151","name": "Особняк Фолленвейдера","kind": "Landmark","address": "Большая аллея, д. 13.","lat": "59.978953","lng": "30.28378"},{"id": "2139","name": "Дом Суворина","kind": "Landmark","address": "ул. Чехова, д. 6.","lat": "59.937184","lng": "30.352501"},{"id": "2108","name": "Кикины палаты","kind": "Landmark","address": "ул. Ставропольская, д.9.","lat": "59.949605","lng": "30.3867"},{"id": "2107","name": "Народная обсерватория","kind": "Landmark","address": "ул. Прилукская, д. 24.","lat": "59.90931","lng": "30.350831"},{"id": "2106","name": "Особняк Дмитрия Никифоровича Кайгородова","kind": "Landmark","address": "Институтский проспект, д. 21а.","lat": "60.003916","lng": "30.350372"},{"id": "2104","name": "Дом с ангелами в Павловске","kind": "Landmark","address": "г. Павловск, ул. Красного Курсанта. д. 8.","lat": "59.682882","lng": "30.457496"},{"id": "2101","name": "Стадион 'ЛУЧ' с граффити и лепниной","kind": "Landmark","address": "Набережная Чёрной Речки, д. 3.","lat": "59.982433","lng": "30.319542"},{"id": "2080","name": "Кирха Преображения Господня в Зеленогорске","kind": "Landmark","address": "г. Зеленогорск, ул. Ленина, д. 13А.","lat": "60.195872","lng": "29.706542"},{"id": "2079","name": "Желтая дача Месмахера","kind": "Landmark","address": "ул. Вологодина. д. 13-15.","lat": "60.078695","lng": "30.30226"},{"id": "2073","name": "Магазин 'Смерть мужьям'","kind": "Landmark","address": "пр. Суворовский, д. 53.","lat": "59.94017","lng": "30.378932"},{"id": "2070","name": "Дача Телёнкова","kind": "Landmark","address": "ул. Большая Озерная, д. 54.","lat": "60.03677","lng": "30.306455"},{"id": "2065","name": "Особняк купца Дмитрия Алексеевича Котлова","kind": "Landmark","address": "Пр. Тореза, д. 8.","lat": "59.999896","lng": "30.362159"},{"id": "2052","name": "Колонны с пегасиками","kind": "Landmark","address": "Большой проспект В.О,, д. 89 и 87.","lat": "59.929328","lng": "30.248261"},{"id": "2051","name": "Колонны с жар-птицами ","kind": "Landmark","address": "ул. Благодатная, д. 28.","lat": "59.876059","lng": "30.322592"},{"id": "2030","name": "Неопалимая купина","kind": "Landmark","address": "Лесной проспект, д. 17.","lat": "59.965552","lng": "30.351423"},{"id": "2027","name": "Фонтан дома Танского","kind": "Landmark","address": "ул. Куйбышева, д. 21.","lat": "59.956124","lng": "30.331392"},{"id": "1990","name": "Церковь","kind": "Landmark","address": "пр. Невский, д. 22-24.","lat": "59.93657","lng": "30.323921"},{"id": "1974","name": "Комплекс больничных зданий О. Г. Гиппиуса","kind": "Landmark","address": "пр. Лиговский, д. 2-4.","lat": "59.937905","lng": "30.366066"},{"id": "1973","name": "Приход Матери Божьей Лурдской Римско-католической церкви в Санкт-Петербурге","kind": "Landmark","address": "Ковенский переулок, д. 7.","lat": "59.937032","lng": "30.356796"},{"id": "1961","name": "Храм","kind": "Landmark","address": "Набережная лейтенанта Шмидта, дом 26.","lat": "59.933361","lng": "30.276387"},{"id": "1960","name": "Храм на службе ВС РФ","kind": "Landmark","address": "Большой пр. ВО, дом 100.","lat": "59.92743","lng": "30.245236"},{"id": "1934","name": "Водонапорная башня Обуховского завода","kind": "Landmark","address": "Октябрьская набережная, д. 104а.","lat": "59.869124","lng": "30.484248"},{"id": "1904","name": "Башенка в Политехе","kind": "Landmark","address": "ул. Политехническая, д. 29Г.","lat": "60.005655","lng": "30.374248"},{"id": "1901","name": "Дом Бассейнового товарищества  ","kind": "Landmark","address": "ул. Некрасова, д. 58-60.","lat": "59.938766","lng": "30.367728"},{"id": "1881","name": "Флигель во дворе ","kind": "Landmark","address": "Васильевский остров, набержная Макарова, д. 14 б.","lat": "59.945733","lng": "30.29007"},{"id": "1877","name": "Дом создателя гиперболоида ","kind": "Landmark","address": "ул. Жуковского, д. 37.","lat": "59.935507","lng": "30.357119"},{"id": "1871","name": "А у нас во дворе","kind": "Landmark","address": "3-я линия В.О., д. 26.","lat": "59.943151","lng": "30.284294"},{"id": "1812","name": "Дом дешевых квартир Императорского человеколюбивого общества ","kind": "Landmark","address": "пр. Чкаловский, д. 13 / ул. Большая Зеленина, д. 13.","lat": "59.961417","lng": "30.292239"},{"id": "1810","name": "Копец","kind": "Landmark","address": "Малый проспект П.С., д. 7.","lat": "59.954427","lng": "30.291503"},{"id": "1789","name": "Часовня с рекламой","kind": "Landmark","address": "Кронверкская набережная.","lat": "59.951695","lng": "30.325842"},{"id": "1785","name": "Дохлая лошадка/опрокинутая табуретка","kind": "Landmark","address": "Набержная реки Фонтанки, д. 104.","lat": "59.923184","lng": "30.3238"},{"id": "1761","name": "Танцующий дом","kind": "Landmark","address": "Вяземский переулок, д. 6.","lat": "59.972992","lng": "30.300013"},{"id": "1755","name": "Буддийский Храм Санкт-Петербурга","kind": "Landmark","address": "на углу Приморского проспекта и Липовой аллеи.","lat": "59.983212","lng": "30.257274"},{"id": "1740","name": "Дом Маринеско в Кронштадте","kind": "Landmark","address": "г. Кронштадт, ул. Макаровская, д. 2.","lat": "59.987737","lng": "29.770468"},{"id": "1732","name": "Театр Эйфмана","kind": "Landmark","address": "ул. Лизы Чайкиной, д. 2.","lat": "59.956453","lng": "30.298288"},{"id": "1721","name": "Зал духов","kind": "Landmark","address": "пр. Римского Корсакова, дом 11.","lat": "59.92442","lng": "30.308577"},{"id": "1713","name": "Дом старухи-процентщицы","kind": "Landmark","address": "ул. Средняя Подьяческая, д. 15А.","lat": "59.924776","lng": "30.303462"},{"id": "1712","name": "Дом Распутина","kind": "Landmark","address": "ул. Гороховая, д. 64.","lat": "59.923108","lng": "30.331041"},{"id": "1710","name": "Дом с ангелом","kind": "Landmark","address": "Малый проспект П.С., д. 32.","lat": "59.957196","lng": "30.293464"},{"id": "1707","name": "Дом Раскольникова","kind": "Landmark","address": "ул. Гражданская,  д. 19.","lat": "59.927599","lng": "30.310775"},{"id": "1705","name": "Дом со шпилем","kind": "Landmark","address": "Московский проспект, д. 190.","lat": "59.864512","lng": "30.32142"},{"id": "1682","name": "Машина времени. Интерьеры Елисеевского...","kind": "Landmark","address": "пр. Невский, д. 56/8.","lat": "59.934078","lng": "30.338003"},{"id": "1662","name": "Петропавловская крепость","kind": "Landmark","address": "Петропавловская крепость.","lat": "59.949641","lng": "30.315617"},{"id": "1632","name": "Звезда","kind": "Landmark","address": "13 линия В.О., д. 30.","lat": "59.939532","lng": "30.27203"},{"id": "1599","name": "Дом с летучими мышами","kind": "Landmark","address": "ул. Садовая, д. 55-57.","lat": "59.923063","lng": "30.308457"},{"id": "1596","name": "Просто красивый дом","kind": "Landmark","address": "Клинский проспект, д. 17.","lat": "59.914935","lng": "30.32248"},{"id": "1595","name": "Необычная крыша","kind": "Landmark","address": "Манежный переулок, д. 3.","lat": "59.942962","lng": "30.354316"},{"id": "1566","name": "Атлант и кариатида","kind": "Landmark","address": "4 линия В.О., д. 21.","lat": "59.940736","lng": "30.284211"},{"id": "1564","name": "Майский жук","kind": "Landmark","address": "14-я линия ул. В.О., д. 39 .","lat": "59.939798","lng": "30.270036"},{"id": "1536","name": "Аничков Дворец","kind": "Landmark","address": "Невский проспект, д. 39.","lat": "59.932861","lng": "30.340194"},{"id": "1532","name": "Алексеевский дворец","kind": "Landmark","address": "набережная реки Мойки, д. 122 А.","lat": "59.927946","lng": "30.28316"},{"id": "1531","name": "Дом со свастиками","kind": "Landmark","address": "пер. Угловой, д.7.","lat": "59.909865","lng": "30.316524"},{"id": "1514","name": "Усадьба Демидова","kind": "Landmark","address": "пер. Гривцова, д. 1/ 64.","lat": "59.931296","lng": "30.312095"},{"id": "1513","name": "Дом-стена на ул. Боровой","kind": "Landmark","address": "ул. Боровая, д. 21.","lat": "59.919008","lng": "30.346402"},{"id": "1512","name": "Сын полка","kind": "Landmark","address": "Набережная Обводного канала, д.165 А.","lat": "59.909192","lng": "30.3049"},{"id": "1475","name": "Воронинские бани на Мойке","kind": "Landmark","address": "Набережная реки Мойки, д. 82В.","lat": "59.929831","lng": "30.303471"},{"id": "1446","name": "Толстовский дом","kind": "Landmark","address": "Набережная реки Фонтанки, д. 54.","lat": "59.929632","lng": "30.341398"},{"id": "1427","name": "Сказочный дом","kind": "Landmark","address": "г. Петродворец, ул. Воровского.","lat": "59.862425","lng": "29.946687"},{"id": "1417","name": "Иконы на доме","kind": "Landmark","address": "ул. Правды, д. 13.","lat": "59.922206","lng": "30.339485"},{"id": "1272","name": "Странные балконы","kind": "Landmark","address": "пр. Московский, д. 129.","lat": "59.88437","lng": "30.318743"},{"id": "1240","name": "Статуи на крыше","kind": "Landmark","address": "Большой проспект П.С., д. 77.","lat": "59.966057","lng": "30.313452"},{"id": "1216","name": "Путевой дворец в Стрельне","kind": "Landmark","address": "Стрельна, пос. Больничная Горка, д. 2.","lat": "59.853943","lng": "30.044658"},{"id": "1159","name": "Петергофский Карильон","kind": "Landmark","address": "ул. Правленская 12.","lat": "59.88074","lng": "29.909964"},{"id": "1134","name": "Пулковские высоты","kind": "Landmark","address": "Пулковское шоссе.","lat": "59.771576","lng": "30.32354"},{"id": "1132","name": "'Египетский' дом","kind": "Landmark","address": "ул. Захарьевская, д. 23.","lat": "59.947505","lng": "30.357649"},{"id": "1115","name": "Петропавловская церковь в Шуваловском парке","kind": "Landmark","address": "Парголово, Шуваловский парк.","lat": "60.075919","lng": "30.304504"},{"id": "1071","name": "Промышленный замок","kind": "Landmark","address": "Ул. Гельсингфорская, д. 3.","lat": "59.974035","lng": "30.333097"},{"id": "1044","name": "Бадаевские склады","kind": "Landmark","address": "ул. Киевская, д. 5.","lat": "59.900407","lng": "30.327349"},{"id": "1042","name": "Башни-'кастрюльки'.","kind": "Landmark","address": "Набережная Обводного канала, д. 74.","lat": "59.911602","lng": "30.330394"},{"id": "1030","name": "Дом с башнями","kind": "Landmark","address": "Большой проспект Петроградской стороны, д. 75.","lat": "59.966007","lng": "30.313236"},{"id": "993","name": "Падающий дом","kind": "Landmark","address": "ул. Конная, д. 6.","lat": "59.929412","lng": "30.374699"},{"id": "974","name": "Дом с 'лошадкой'","kind": "Landmark","address": "ул. Садовая, д. 111-113.","lat": "59.918232","lng": "30.286439"},{"id": "970","name": "Дом-'утюг' на Садовой","kind": "Landmark","address": "ул. Садовая, д. 128.","lat": "59.916834","lng": "30.283062"},{"id": "916","name": "Дом на Зеленина","kind": "Landmark","address": "ул. Большая Зеленина, д. 28.","lat": "59.964088","lng": "30.285927"},{"id": "866","name": "Рельеф на ДК Связи","kind": "Landmark","address": "ул. Большая Морская, д. 58.","lat": "59.930949","lng": "30.302771"},{"id": "835","name": "Церковь рождества Иоанна Предтечи","kind": "Landmark","address": "Каменноостровский проспект, д. 83.","lat": "59.980889","lng": "30.300498"},{"id": "797","name": "ТК 'Штрих - код'","kind": "Landmark","address": "ул. Народная, д. 3.","lat": "59.878649","lng": "30.46047"},{"id": "765","name": "Атланты-варвары","kind": "Landmark","address": "пер. Саперный, д. 13.","lat": "59.94065","lng": "30.359167"},{"id": "715","name": "Питерские голубятни","kind": "Landmark","address": "ул. Добровольцев.","lat": "59.836988","lng": "30.164843"},{"id": "695","name": "5 углов","kind": "Landmark","address": "Пересечение Загородного  проспекта с улицами Разъезжей, Рубинштейна  и Ломоносова .","lat": "59.926179","lng": "30.342503"},{"id": "690","name": "Уткина дача","kind": "Landmark","address": "пр. Уткин, д. 2.","lat": "59.934736","lng": "30.42275"},{"id": "689","name": "Тайный ход","kind": "Landmark","address": "Петропавловская крепость.","lat": "59.949785","lng": "30.318976"},{"id": "675","name": "Футбольная площадка Аршавина","kind": "Landmark","address": "пр. Просвещения, д. 53/1.","lat": "60.041777","lng": "30.382811"},{"id": "642","name": "Самый маленький портик","kind": "Landmark","address": "В.О., перед началом улицы Репина, Румянцевский сквер.","lat": "59.938748","lng": "30.292153"},{"id": "631","name": "Телебашня","kind": "Landmark","address": "Аптекарский остров, ул. Академика Павлова, д. 3.","lat": "59.976522","lng": "30.319794"},{"id": "593","name": "Дом Алюшинского","kind": "Landmark","address": "ул. Ленина, д. 32.","lat": "59.963061","lng": "30.300812"},{"id": "580","name": "Готический Колодец","kind": "Landmark","address": "г. Петродворец, Парк Александрия.","lat": "59.882293","lng": "29.929045"},{"id": "571","name": "Развалины Английского дворца","kind": "Landmark","address": "г. Петродворец, на западном берегу Английского пруда.","lat": "59.879638","lng": "29.878766"},{"id": "549","name": "Фрески с учеными","kind": "Landmark","address": "г. Петродворец, Университетский проспект, д.28.","lat": "59.879552","lng": "29.830239"},{"id": "529","name": "Башня-Руина","kind": "Landmark","address": "г. Стрельна, Орловский парк.","lat": "59.850929","lng": "30.03907"},{"id": "512","name": "Потайной вход в метро","kind": "Landmark","address": "М. 'Площадь Мужества' (ул. Политехническая, д. 17/1).","lat": "59.999926","lng": "30.366497"},{"id": "501","name": "Непарадные 4","kind": "Landmark","address": "ул. Большая Конюшенная.","lat": "59.936557","lng": "30.32248"},{"id": "483","name": "Дом без окон","kind": "Landmark","address": "ул. Кондратенко, д. 1.","lat": "59.885589","lng": "30.342979"},{"id": "479","name": "Graffiti Hostel","kind": "Landmark","address": "Набережная реки Мойки, д. 102.","lat": "59.927428","lng": "30.293096"},{"id": "476","name": "Дом Ирэн Адлер","kind": "Landmark","address": "2-я Березовая аллея, д. 32.","lat": "59.977823","lng": "30.283619"},{"id": "438","name": "Чеширская улыбка...","kind": "Landmark","address": "Царское Село, пр. Акадедемический, д. 14к2, 18, 18к2.","lat": "59.726093","lng": "30.393878"},{"id": "417","name": "Летающая тарелка","kind": "Landmark","address": "м. Горьковская.","lat": "59.956124","lng": "30.318931"},{"id": "388","name": "Дом Бажанова","kind": "Landmark","address": "ул. Марата, д.72.","lat": "59.920095","lng": "30.343491"},{"id": "318","name": "Павлинья лестница","kind": "Landmark","address": "ул. Мытнинская, д. 5.","lat": "59.932685","lng": "30.376954"},{"id": "288","name": "Ротонда Петербурга","kind": "Landmark","address": "ул. Гороховая, д. 57 / набережная реки Фонтанки, д. 81.","lat": "59.925502","lng": "30.325902"},{"id": "213","name": "Бизнес-центр 'Бенуа'","kind": "Landmark","address": "Свердловская набережная, д. 44.","lat": "59.958742","lng": "30.405682"},{"id": "211","name": "Дом-кольцо","kind": "Landmark","address": "Набережная реки Фонтанки, д. 92.","lat": "59.923964","lng": "30.327007"},{"id": "107","name": "Водонапорная башня","kind": "Landmark","address": "ул. Шпалерная, д. 56.","lat": "59.948965","lng": "30.375004"},{"id": "5746","name": "Купеческая гавань в Петродворце","kind": "Park","address": "г. Петергоф, Нижний парк.","lat": "59.889155","lng": "29.891829"},{"id": "5576","name": "Польский сад","kind": "Park","address": "Державинский переулок.","lat": "59.917366","lng": "30.312805"},{"id": "4803","name": "Фонтаны на площади Ленина","kind": "Park","address": "Площадь Ленина.","lat": "59.954317","lng": "30.355664"},{"id": "4297","name": "Усадьба адмирала Лазарева","kind": "Park","address": "г. Кронштадт, ул. Пролетарская, д. 30.","lat": "59.989608","lng": "29.789013"},{"id": "3671","name": "Зимний садик на ст.м.Выборгская","kind": "Park","address": "м. Выборгская.","lat": "59.970929","lng": "30.347408"},{"id": "3541","name": "Реконструкция Летнего сада. Что теряем-обретаем","kind": "Park","address": "угол Невы и Фонтанки.","lat": "59.94747","lng": "30.336235"},{"id": "3339","name": "Усадьба Александрино","kind": "Park","address": "пр. Стачек, д. 226.","lat": "59.8451","lng": "30.220389"},{"id": "3164","name": "Летний сад в Кронштадте","kind": "Park","address": "Кронштадт.","lat": "59.991412","lng": "29.776304"},{"id": "2861","name": "Cад 'Спартак'","kind": "Park","address": "пр. Обуховской Обороны, д. 134-136.","lat": "59.851774","lng": "30.48326"},{"id": "2271","name": "Сквер храма св. ап. Матфия","kind": "Park","address": "ул. Большая Пушкарская, д. 35.","lat": "59.961204","lng": "30.309148"},{"id": "1832","name": "Ботанический сад","kind": "Park","address": "ул. Профессора Попова, д. 4 / пр. Аптекарский, д. 1.","lat": "59.97162","lng": "30.326932"},{"id": "1142","name": "Зимний сад","kind": "Park","address": "ул. Потемкинская, д. 2.","lat": "59.948618","lng": "30.368518"},{"id": "740","name": "Есть в старом парке...","kind": "Park","address": "Парк Лесотехнической академии.","lat": "59.993721","lng": "30.341596"},{"id": "716","name": "Райский садик","kind": "Park","address": "г. Зеленогорск, Приморское шоссе, д. 547.","lat": "60.192259","lng": "29.706478"},{"id": "387","name": "Сквер у метро 'Звенигородская'","kind": "Park","address": "ул. Звенигородская, д. 5.","lat": "59.920212","lng": "30.337526"},{"id": "244","name": "Пони и прочие чудеса в саду Академии Художеств","kind": "Park","address": "3-я линия В.О., д.2.","lat": "59.938797","lng": "30.288443"},{"id": "38","name": "Сад Андрея Петрова","kind": "Park","address": "пр. Каменноостровский, д.30.","lat": "59.963341","lng": "30.313515"},{"id": "30","name": "Китайский сквер","kind": "Park","address": "Литейный проспект, дом 17.","lat": "59.944021","lng": "30.348378"},{"id": "6010","name": "Вантовый стеклянный мост Мариинки-2","kind": "Bridge","address": "наб. Крюкова канала .","lat": "59.925046","lng": "30.295011"},{"id": "5720","name": "Качающийся Почтамтский мостик","kind": "Bridge","address": "Набережная реки Мойки, д. 88.","lat": "59.930284","lng": "30.30087"},{"id": "3687","name": "Первый каменный мост Санкт-Петербурга","kind": "Bridge","address": "Эрмитажный мост.","lat": "59.942547","lng": "30.316847"},{"id": "3678","name": "Цветные мосты Санкт-Петербурга - Жёлтый мост","kind": "Bridge","address": "Певческий мост.","lat": "59.939906","lng": "30.319461"},{"id": "3677","name": "Цветные мосты Санкт-Петербурга - Зелёный мост","kind": "Bridge","address": "Зелёный мост.","lat": "59.936088","lng": "30.319434"},{"id": "3675","name": "Цветные мосты Санкт-Петербурга - Красный мост","kind": "Bridge","address": "Красный мост.","lat": "59.932685","lng": "30.315617"},{"id": "3669","name": "Самый низкий мост Санкт-Петербурга - Казанский мост","kind": "Bridge","address": "Казанский мост.","lat": "59.935218","lng": "30.326648"},{"id": "3370","name": "Мост","kind": "Bridge","address": "Ул. Садовая, д. 2.","lat": "59.939946","lng": "30.339908"},{"id": "3367","name": "Мост для некурящих в Санкт-Петербурге","kind": "Bridge","address": "Горсткин мост.","lat": "59.923874","lng": "30.323935"},{"id": "3282","name": "Ново-Андреевский мост","kind": "Bridge","address": "Новосмоленская набережная.","lat": "59.950217","lng": "30.218149"},{"id": "3204","name": "Петровский док (вскоре ПРОСТО ЯМА)","kind": "Bridge","address": "Кронштадт.","lat": "59.991112","lng": "29.768923"},{"id": "3188","name": "Сфинксы у Египетского моста","kind": "Bridge","address": "Египетский мост.","lat": "59.917199","lng": "30.297228"},{"id": "2795","name": "Мост с замочками в Санкт-Петербурге","kind": "Bridge","address": "Малый Конюшенный мост .","lat": "59.94166","lng": "30.329019"},{"id": "2758","name": "Иоанновский мост","kind": "Bridge","address": "Петропавловская крепость.","lat": "59.952138","lng": "30.322569"},{"id": "2734","name": "Морские коньки-единороги на мосту Ломоносова","kind": "Bridge","address": "Площадь Ломоносова, мост Ломоносова.","lat": "59.928385","lng": "30.335908"},{"id": "2671","name": "Мосты в Александровском парке","kind": "Bridge","address": "Александровский парк.","lat": "59.955311","lng": "30.317035"},{"id": "2405","name": "Вытирайте ноги","kind": "Bridge","address": "Лопухинский сад.","lat": "59.976731","lng": "30.307073"},{"id": "2178","name": "Благовещенский мост  (не только разводится","kind": "Bridge","address": "между Васильевским и Адмиралтейскими островами .","lat": "59.934317","lng": "30.289933"},{"id": "1867","name": "Троицкий мост","kind": "Bridge","address": "Троицкий мост.","lat": "59.948762","lng": "30.327465"},{"id": "1839","name": "'Американские' мосты","kind": "Bridge","address": "Обводный канал.","lat": "59.914135","lng": "30.363333"},{"id": "1808","name": "Подземный мост","kind": "Bridge","address": "пл. Труда.","lat": "59.931607","lng": "30.292566"},{"id": "1735","name": "Тоннель","kind": "Bridge","address": "Лесной проспект - Чугунная улица.","lat": "59.970991","lng": "30.348933"},{"id": "1694","name": "Шуточка и городская легенда","kind": "Bridge","address": "самое начало Фонтанки, например, набережная реки Фонтанки,  д. 2.","lat": "59.947731","lng": "30.336492"},{"id": "1559","name": "Аничков Мост и Кони Клодта","kind": "Bridge","address": "�оллекцию</a></td></tr></table></div><p style='text-align: justify;'>Город, стоящий на воде, весь пронизан каналами и соединён мостами. Один изсамых известных мостов Петербурга &ndash; Аничков мост. Первый раз мост на этом месте был построен по указу Петра I в 1715&nbsp; году, позже неоднократно перестраивался, и окончательный вариант появился только через семьдесят лет. <br /><br />Народная молва, как правило, ставит ударение в названии моста на первый слог. Вследствие чего, возникают вопросы, в честь какой такой Анечки назвали этот элемент городского ландшафта, и причём здесь четыре конные скульптуры? Императрица Анна Иоанновна здесь явно ни при чём, постройка моста хоть и пришлась на её век, но не в её честь. И никакой другой романтической истории про Анечку, к сожалению, не найдётся в истории Петербурга.<br /><br />Разгадка проста: подполковник Аничков (и ударение в этой фамилии на второй слог) руководил постройкой этого моста, когда под его командованием действовал целый батальон. Сначала мост был деревянным, а для солидности дерево расписали под камень.<br /><br />В конце восемнадцатого века мост был перестроен, и стал уже по-настоящему каменным. Известной четвёрки коней тогда ещё не было, лишь две башни украшали собой переправу через Фонтанку. Позже Аничков мост перестраивался неоднократно, так как городская жизнь развивалась, и улицы становились шире. В конце девятнадцатого века к проекту моста планировали добавить скульптуры Клодта, изначально сделанные для Адмиралтейской набережной. А ещё на серединных опорах моста должны были появиться большие красивые вазы, под которые даже соорудили постаменты.<br /><br />Постаменты остались по сей день. Пустыми. А скульптур изначально было две - &laquo;Конь с идущим юношей&raquo; и &laquo;Юноша, берущий коня под уздцы&raquo;. И стояли они по одну сторону моста, а по другую &ndash; дублировались. Причём, оригиналы были бронзовые, а дубли &ndash; гипсовые. Ещё две бронзовые фигуры не успели добраться до своих постаментов &ndash; царь Николай I подарил их прусскому королю, как только они были отлиты. И следующие бронзовые копии тоже стали подарком, но уже королю Сицилии. <br /><br />Только в 1851 году мост стал таким, каким мы его знаем &ndash; скульптор Клодт изобразил в разных своих творениях четыре стадии покорения коня, и все они в бронзе украсили собой углы Аничкова моста. <br /><br />Дважды с тех пор скульптуры покидали свои места &ndash; в 1941 году их закапывали в саду Аничкова дворца во время войны и блокады, а в 2000 году увозили на реставрацию к трёхсотлетию города на Неве. <br /><br />Говорят, что в XVIII веке на Литейном проспекте стояли кузницы и, конечно же, там подковывали лошадей. Поэтому, если посмотреть на скульптуры повнимательнее, то к Литейному &laquo;идут&raquo; лошади без подков, а в обратном направлении &ndash; уже подкованные.&nbsp;&nbsp;&nbsp;&nbsp;&nbsp; <br /><br />В Москве копии скульптур можно видеть на Беговой аллее около Московского ипподрома.","lat": "59.933149","lng": "30.343527"},{"id": "1486","name": "Калинкин Мост","kind": "Bridge","address": "Садовая ул., 130.","lat": "59.916505","lng": "30.279603"},{"id": "600","name": "Семимостье","kind": "Bridge","address": "Наб. канала Грибоедова, д. 131.","lat": "59.920785","lng": "30.298522"},{"id": "271","name": "Львиный мост ","kind": "Bridge","address": "Львиный переулок на канале Грибоедова.","lat": "59.926909","lng": "30.301468"},{"id": "270","name": "Банковский мост","kind": "Bridge","address": "Соединяет Казанский и Спасский острова через канал Грибоедова в Центральном районе Санкт-Петербурга.","lat": "59.932103","lng": "30.324914"},{"id": "71","name": "Синий мост","kind": "Bridge","address": "Исаакиевская площадь.","lat": "59.931594","lng": "30.308996"},{"id": "68","name": "Поцелуев мост","kind": "Bridge","address": "Продолжение улицы Глинки, недалеко от Новой Голландии.","lat": "59.928154","lng": "30.294955"},{"id": "6340","name": "Памятник архитектору Василию Стасову","kind": "Monument","address": "Измайловский проспект.","lat": "59.9168","lng": "30.307068"},{"id": "6293","name": "Фонтан «Времена года»","kind": "Monument","address": "Проспект Энгельса д. 154.","lat": "60.057368","lng": "30.336772"},{"id": "6256","name": "Памятник Русским воинам Великой (1-ой Мировой) войны","kind": "Monument","address": "Загородный проспект, д. 52.","lat": "59.920095","lng": "30.328556"},{"id": "6080","name": "Герои русских сказок","kind": "Monument","address": "пер. Дерптский, д. 9.","lat": "59.912903","lng": "30.28685"},{"id": "6064","name": "Первый вкладчик Сбербанка (Н.А.Кристофари)","kind": "Monument","address": "пр. Невский, д. 99/101.","lat": "59.929715","lng": "30.367498"},{"id": "6054","name": "Памятник суворовцам","kind": "Monument","address": "ул. Садовая, д. 26.","lat": "59.931586","lng": "30.331432"},{"id": "5952","name": "Памятник влюбленному шаману","kind": "Monument","address": "Петроградская сторона.","lat": "59.972508","lng": "30.305681"},{"id": "5902","name": "Памятник Трезини в Петербурге (Первый архитектор Петербурга)","kind": "Monument","address": "пл. Трезини .","lat": "59.93675","lng": "30.288098"},{"id": "5887","name": "Скульптура 'Авиатор'","kind": "Monument","address": "Пулковское шоссе, д. 41.","lat": "59.800131","lng": "30.270937"},{"id": "5855","name": "Свидетель моря","kind": "Monument","address": "пос. Солнечное.","lat": "60.149466","lng": "29.952778"},{"id": "5808","name": "Дворник у входа в музей Достоевского","kind": "Monument","address": "Кузнечный переулок, д. 5.","lat": "59.927248","lng": "30.350818"},{"id": "5796","name": "Скульптура «Неизвестная»","kind": "Monument","address": "г. Пушкин, ул. Садовая, д. 8.","lat": "59.717158","lng": "30.398952"},{"id": "5743","name": "Пётр I","kind": "Monument","address": "Петродворец, Нижний парк, музей'Императорские яхты'..","lat": "59.8878","lng": "29.91178"},{"id": "5717","name": "Ленин жил","kind": "Monument","address": "ул. Декабристов, д. 35.","lat": "59.926543","lng": "30.289783"},{"id": "5715","name": "Памятник Лесгафту","kind": "Monument","address": "Набережная реки Мойка, д. 106.","lat": "59.92741","lng": "30.290447"},{"id": "5713","name": "Памятник 'Детям войны'","kind": "Monument","address": "Пересечение пр. Непокоренных и Меншиковского пр..","lat": "59.993456","lng": "30.428948"},{"id": "5712","name": "Памятник воинам-спортсменам","kind": "Monument","address": "ул. Декабристов, д. 35.","lat": "59.926984","lng": "30.291263"},{"id": "5682","name": "Статуя А.М. Горького во дворе комплекса 'Печатный двор'","kind": "Monument","address": "ул. Ораниенбаумская, д. 26, к. 2.","lat": "59.962652","lng": "30.296449"},{"id": "5675","name": "Фонтан на ул","kind": "Monument","address": "ул. Глинки, д. 4.","lat": "59.924614","lng": "30.298773"},{"id": "5632","name": "Николай и Александра","kind": "Monument","address": "Наб. Обводного канала, д. 116.","lat": "59.907824","lng": "30.309435"},{"id": "5609","name": "Грации","kind": "Monument","address": "ул. Потемкинская, д. 3 / ул. Захарьевская, д. 41.","lat": "59.947328","lng": "30.367388"},{"id": "5565","name": "'Поцелуй'","kind": "Monument","address": "Елагин остров.","lat": "59.979375","lng": "30.265348"},{"id": "5505","name": "Гномик","kind": "Monument","address": "Набережная канала Грибоедова, д. 20.","lat": "59.934132","lng": "30.326863"},{"id": "5497","name": "Памятник Спецназу","kind": "Monument","address": "пр. Славы, д. 45 .","lat": "59.859082","lng": "30.39551"},{"id": "5450","name": "Магазин Купцов Елисеевых","kind": "Monument","address": "пр. Невский, д. 56.","lat": "59.93406","lng": "30.3382"},{"id": "5135","name": "Щит-портрет Анны Ахматовой во дворе Фонтанного Дома","kind": "Monument","address": "пр. Литейный, д. 53.","lat": "59.936224","lng": "30.347749"},{"id": "5016","name": "Еще один необычный Ангел","kind": "Monument","address": "Измайловский сад.","lat": "59.919576","lng": "30.312859"},{"id": "4968","name": "Памятник адмиралу П.С. Нахимову","kind": "Monument","address": "ул. Нахимова, д. 26. Сквер «Малые Гаванцы».","lat": "59.939593","lng": "30.22053"},{"id": "4953","name": "Памятник П.И. Багратиону","kind": "Monument","address": "ул. Марата, д. 86-90, бывший Семёновский плац.","lat": "59.917668","lng": "30.337455"},{"id": "4926","name": "Девушка без руки и ноги","kind": "Monument","address": "ул. Сердобольская, д.68.","lat": "59.985015","lng": "30.314033"},{"id": "4905","name": "Киборг","kind": "Monument","address": "ул. Ленина.","lat": "59.96253","lng": "30.303426"},{"id": "4895","name": "Обелиск погибшему самолету","kind": "Monument","address": "пересечение КАД и Колтушского щоссе.","lat": "59.946409","lng": "30.543624"},{"id": "4764","name": "'Сердечные' глаза Петра","kind": "Monument","address": "Адмиралтейская набережная.","lat": "59.9362","lng": "30.302373"},{"id": "4748","name": "Памятник Карлу и Эмилии","kind": "Monument","address": "пр. Тихорецкий, д. 4, кор. 2.","lat": "60.020952","lng": "30.366659"},{"id": "4653","name": "Счастливый отец","kind": "Monument","address": "ул. Сердобольская, д.12.","lat": "59.992079","lng": "30.323723"},{"id": "4596","name": "Писающий мальчик и другие...","kind": "Monument","address": "Проспект Культуры, д. 4, кор. 5.","lat": "60.035682","lng": "30.364804"},{"id": "4595","name": "Памятник адмиралу Макарову ","kind": "Monument","address": "г. Кронштадт, Морская площадь.","lat": "59.990681","lng": "29.773595"},{"id": "4558","name": "Тамара и Демон","kind": "Monument","address": "Елагин остров (ЦПКиО).","lat": "59.979418","lng": "30.269425"},{"id": "4420","name": "Колесница Солнца","kind": "Monument","address": "г. Пушкин, шоссе Подбельского, д. 7-9.","lat": "59.725744","lng": "30.432917"},{"id": "4412","name": "Клеопатра","kind": "Monument","address": "Гражданский проспект, д. 88, кор. 6.","lat": "60.017178","lng": "30.400922"},{"id": "4410","name": "Дворник","kind": "Monument","address": "Набережная канала Грибоедова, д. 5 .","lat": "59.939667","lng": "30.327681"},{"id": "4381","name": "Скульптура «Танец»","kind": "Monument","address": "Елагин остров, ЦПКиО им. Кирова.","lat": "59.979442","lng": "30.264024"},{"id": "4359","name": "И снова Таратынов","kind": "Monument","address": "г. Пушкин, Екатерининский парк.","lat": "59.713202","lng": "30.395899"},{"id": "4358","name": "Джинн и Девушка","kind": "Monument","address": "Ул. Афонская, д. 24, к. 1.","lat": "60.030463","lng": "30.301158"},{"id": "4237","name": "Памятник Сестрорецкому рабочему","kind": "Monument","address": "Приморское шоссе, д. 280.","lat": "60.090935","lng": "29.972245"},{"id": "4231","name": "Фонтаны 'Дивного города'","kind": "Monument","address": "пр. Энгельса, д. 154.","lat": "60.058665","lng": "30.335652"},{"id": "4191","name": "Памятник Шостаковичу","kind": "Monument","address": "Выборгский район.","lat": "60.05657","lng": "30.336496"},{"id": "4189","name": "Пиноккио на дереве","kind": "Monument","address": "Двор между 16 линией и Донской улицей (на карте я показал достаточно точно), только голову нужно задрать.","lat": "59.942845","lng": "30.262724"},{"id": "4171","name": "Рабочий и колхозница","kind": "Monument","address": "Промышленная ул., д. 19.","lat": "59.896919","lng": "30.261183"},{"id": "4157","name": "Фигура на носу фрегата «Благодать»","kind": "Monument","address": "Петровская набережная, у Троицкого моста.","lat": "59.95178","lng": "30.328593"},{"id": "4043","name": "Юная соблазнительница","kind": "Monument","address": "Каменноостровский проспект, д. 5/3.","lat": "59.957588","lng": "30.321179"},{"id": "4037","name": "Робинзон на Заневском","kind": "Monument","address": "пр. Заневский, д. 10.","lat": "59.928526","lng": "30.408959"},{"id": "3998","name": "Памятник Франсиско де Миранде","kind": "Monument","address": "Приморский проспект, парк 300-летия Петербурге.","lat": "59.9844","lng": "30.194974"},{"id": "3996","name": "Музы из музыкального училища","kind": "Monument","address": "пр. Просвещения, д. 40.","lat": "60.051763","lng": "30.343607"},{"id": "3992","name": "Белый ангел","kind": "Monument","address": "пер. Челиева, д. 10.","lat": "59.887742","lng": "30.468204"},{"id": "3980","name": "Фонтан «Колодец»","kind": "Monument","address": "Александровский парк, Кронверкская набережная, д. 3а.","lat": "59.953092","lng": "30.319984"},{"id": "3832","name": "'Времена года'","kind": "Monument","address": "Ленинский проспект, д. 118.","lat": "59.852393","lng": "30.255555"},{"id": "3715","name": "Древняя 'Юность'","kind": "Monument","address": "Пионерская пл., 1.","lat": "59.920092","lng": "30.334206"},{"id": "3681","name": "Королева Елизавета на балконе петербургского дома","kind": "Monument","address": "Ковенский переулок, д. 14.","lat": "59.937387","lng": "30.358942"},{"id": "3639","name": "Дворник из мультфильма.","kind": "Monument","address": "ул. Афанасьевская, д. 6 .","lat": "60.032214","lng": "30.295854"},{"id": "3619","name": "Женщина","kind": "Monument","address": "Почтамтская улица дом 13.","lat": "59.931758","lng": "30.299642"},{"id": "3582","name": "'Русский Гамлет'","kind": "Monument","address": "Ул. Садовая, д. 2.","lat": "59.940506","lng": "30.337591"},{"id": "3562","name": "Музы Мраморного дворца","kind": "Monument","address": "ул. Миллионная, д. 5/1.","lat": "59.945053","lng": "30.32672"},{"id": "3543","name": "Пионеры ","kind": "Monument","address": "ул. Сердобольская, д. 12, сквер.","lat": "59.992557","lng": "30.324757"},{"id": "3526","name": "Три Музы","kind": "Monument","address": "Ул. Миллионная, дом 7, угол Мраморного переулка.","lat": "59.944485","lng": "30.326198"},{"id": "3487","name": "Пушкин в метро Черная речка","kind": "Monument","address": "м. 'Черная речка'.","lat": "59.985352","lng": "30.301009"},{"id": "3453","name": "Памятник генералу Брусилову","kind": "Monument","address": "Пересечение Шпалерной и Таврической улицы .","lat": "59.948464","lng": "30.37905"},{"id": "3374","name": "Памятник поэту Коста́ Хетагу́рову","kind": "Monument","address": "4 линия В.О..","lat": "59.938417","lng": "30.287775"},{"id": "3371","name": "Прием в пионеры","kind": "Monument","address": "ул. Кузнецовская улица, д. 25, детская площадка.","lat": "59.871355","lng": "30.332586"},{"id": "3295","name": "Женщина-мыслитель","kind": "Monument","address": "ул. Тверская, д. 20.","lat": "59.947167","lng": "30.387983"},{"id": "3294","name": "Женщина с зеркалом","kind": "Monument","address": "ул. Тульская, д. 11 .","lat": "59.942692","lng": "30.39146"},{"id": "3289","name": "Памятник политехникам","kind": "Monument","address": "ул. Политехническая, дом 29.","lat": "60.006698","lng": "30.372831"},{"id": "3287","name": "Циркачи из труб на Красноармейской","kind": "Monument","address": "ул. 7-ая Красноармейская, дом 21.","lat": "59.911845","lng": "30.310487"},{"id": "3259","name": "Анна Ахматова в Фонтанном доме","kind": "Monument","address": "Шереметевский дворец, набережная реки Фонтанки, д. 34.","lat": "59.936071","lng": "30.346575"},{"id": "3248","name": "Босая девушка","kind": "Monument","address": "м. 'Старая Деревня'.","lat": "59.985406","lng": "30.254399"},{"id": "3208","name": "Глашатай","kind": "Monument","address": "ул. Правды, д. 18.","lat": "59.921953","lng": "30.340415"},{"id": "3169","name": "Скульптура Нева","kind": "Monument","address": "Набережная реки Мойки, д. 42.","lat": "59.936643","lng": "30.320476"},{"id": "3111","name": "Барельеф И.В.Сталина","kind": "Monument","address": "Ул. Коммуны, д. 52.","lat": "59.959662","lng": "30.491033"},{"id": "3081","name": "Рабочий и колхозница или Памятник любви","kind": "Monument","address": "Невский пропект, д. 68.","lat": "59.933147","lng": "30.34523"},{"id": "3080","name": "Рок - звезда  на Невском","kind": "Monument","address": "ул. Михайловская, д. 4.","lat": "59.935259","lng": "30.3314"},{"id": "3072","name": "Памятник преподавателям и студентам Санитарно-гигиенического медицинского института","kind": "Monument","address": "Пискарёвский проспект, д. 47.","lat": "59.984962","lng": "30.432097"},{"id": "3071","name": "Памятник студентам и преподавателям 1-го медицинского института","kind": "Monument","address": "Улица Льва Толстого, д. 6.","lat": "59.965015","lng": "30.321855"},{"id": "3056","name": "Скульптуры близнецы-братья","kind": "Monument","address": "Елагин остров.","lat": "59.978227","lng": "30.252018"},{"id": "3053","name": "Незнакомка","kind": "Monument","address": "Дровяной переулок, д. 3.","lat": "59.922102","lng": "30.282325"},{"id": "3052","name": "Скорбящая девушка","kind": "Monument","address": "Дальневосточный проспект, д. 51.","lat": "59.887968","lng": "30.461611"},{"id": "3048","name": "Памятник подвигу братских народов","kind": "Monument","address": "Дальневосточный проспект, д. 48.","lat": "59.889182","lng": "30.46651"},{"id": "3039","name": "Как раненая птица...","kind": "Monument","address": "ул. Инструментальная, д. 2.","lat": "59.972992","lng": "30.324312"},{"id": "3018","name": "Пионерка с виноградом","kind": "Monument","address": "ул. Чапыгина,  д. 13.","lat": "59.973532","lng": "30.311808"},{"id": "2998","name": "Памятник Защитникам Ленинградского неба в Сосновке","kind": "Monument","address": "парк Сосновка.","lat": "60.019445","lng": "30.34876"},{"id": "2993","name": "Памятник Илье Репину","kind": "Monument","address": "Васильевский остров.","lat": "59.93767","lng": "30.29245"},{"id": "2987","name": "Памятник академику А. Сахарову","kind": "Monument","address": "Васильевский остров.","lat": "59.943318","lng": "30.297442"},{"id": "2982","name": "Бордовый Ленин","kind": "Monument","address": "угол улицы Коммуны и шоссе Революции.","lat": "59.967854","lng": "30.482365"},{"id": "2969","name": "Памятник Мусе Джалилю","kind": "Monument","address": "Василеостровский р-н, ул. Гаванская, д. 18.","lat": "59.931808","lng": "30.239502"},{"id": "2943","name": "Просветители","kind": "Monument","address": "ул. Блохина, д. 26.","lat": "59.951619","lng": "30.295494"},{"id": "2939","name": "Обелиск на месте казни декабристов","kind": "Monument","address": "Кронверкская набережная.","lat": "59.953309","lng": "30.31786"},{"id": "2938","name": "Памятник 'Погоде'","kind": "Monument","address": "ул. Шпалерная, д. 56.","lat": "59.948929","lng": "30.37495"},{"id": "2912","name": "Памятник павшим трудящимся завода","kind": "Monument","address": "ул. Чугунная, д. 14.","lat": "59.93","lng": "30.31"},{"id": "2907","name": "Памятник жертвам Холокоста","kind": "Monument","address": "г. Пушкин, ул. Дворцовая, д. 11.","lat": "59.721542","lng": "30.397327"},{"id": "2881","name": "Памятник апостолу Петру","kind": "Monument","address": "м. 'Горьковская'.","lat": "59.955024","lng": "30.317531"},{"id": "2878","name": "Морская Ника","kind": "Monument","address": "Петровская набережная, д. 8.","lat": "59.954588","lng": "30.336598"},{"id": "2871","name": "«Ораниенбаумский эксперимент. Paragone или Спор искусств»","kind": "Monument","address": "г. Пушкин, Алексанлдровский парк.","lat": "59.722603","lng": "30.389115"},{"id": "2870","name": "Новый век","kind": "Monument","address": "на углу ул. Белинского и ул. Моховой.","lat": "59.938402","lng": "30.34462"},{"id": "2865","name": "Памятник жертвам радиационных аварий и катастроф","kind": "Monument","address": "Пискаревский пр., Парк имени Академика Сахарова.","lat": "59.975536","lng": "30.415296"},{"id": "2864","name": "Гимнаст-факелоносец с ребёнком на руках","kind": "Monument","address": "пр. Писарёвский, д. 23.","lat": "59.968793","lng": "30.411428"},{"id": "2863","name": "Памятник лётчикам на проспекте Науки","kind": "Monument","address": "пр. Науки, д. 25.","lat": "60.010311","lng": "30.406963"},{"id": "2793","name": "Памятник Чапаеву","kind": "Monument","address": "пр. Тихорецкий, д.3.","lat": "60.011257","lng": "30.372017"},{"id": "2785","name": "Прометей и орёл","kind": "Monument","address": "Проспект Просвещения, д. 80.","lat": "60.038033","lng": "30.409744"},{"id": "2771","name": "Поэт Низами Гянджеви","kind": "Monument","address": "Каменноостровский проспект, д. 25-27.","lat": "59.963654","lng": "30.314367"},{"id": "2762","name": "Петр I -XXI век","kind": "Monument","address": "ул. Кораблестроителей, д. 14.","lat": "59.939318","lng": "30.217662"},{"id": "2742","name": "'Создатели флота в России' ","kind": "Monument","address": "ул. Кораблестроителей, д. 14.","lat": "59.938823","lng": "30.214966"},{"id": "2726","name": "Памятник рисункам Пушкина","kind": "Monument","address": "ул. Пушкинская, д. 10.","lat": "59.929114","lng": "30.359033"},{"id": "2724","name": "Памятник","kind": "Monument","address": "Улица Восстания, д.8-10.","lat": "59.934118","lng": "30.35995"},{"id": "2717","name": "Пушкин на станции метро «Пушкинская»","kind": "Monument","address": "М. 'Пушкинская'.","lat": "59.920614","lng": "30.329864"},{"id": "2711","name": "Русский матрос","kind": "Monument","address": "11-я линия ВО, д. 8.","lat": "59.936526","lng": "30.278858"},{"id": "2692","name": "Памятник Пржевальскому","kind": "Monument","address": "Александровский сад.","lat": "59.934813","lng": "30.30313"},{"id": "2691","name": "Памятник Петру I","kind": "Monument","address": "Адмиралтейская набережная.","lat": "59.938333","lng": "30.306121"},{"id": "2689","name": "Итальянские архитекторы Санкт-Петербурга","kind": "Monument","address": "Манежная площадь.","lat": "59.93572","lng": "30.34072"},{"id": "2675","name": "Выпивоха в кандалах","kind": "Monument","address": "Петропавловская крепость.","lat": "59.950158","lng": "30.320252"},{"id": "2670","name": "Дубовый дед в парке Дубки","kind": "Monument","address": "Сестрорецк.","lat": "60.090131","lng": "29.932689"},{"id": "2668","name": "Дети в Александровском парке","kind": "Monument","address": "М.'Горьковская'.","lat": "59.955863","lng": "30.318732"},{"id": "2631","name": "Царкосельский фонтан на Сенной","kind": "Monument","address": "Сенная площадь.","lat": "59.926171","lng": "30.317155"},{"id": "2601","name": "Памятник 'Юным героям обороны города Ленина'","kind": "Monument","address": "Таврический сад.","lat": "59.946635","lng": "30.372911"},{"id": "2600","name": "Фонтан Мальчик с уткой в Таврическом саду","kind": "Monument","address": "Таврический сад.","lat": "59.946635","lng": "30.372911"},{"id": "2575","name": "Фонтан на Серпуховской","kind": "Monument","address": "Серпуховская улица.","lat": "59.914629","lng": "30.324086"},{"id": "2570","name": "Мужеству пожарных 10 отряда","kind": "Monument","address": "Загородный проспект, д. 56.","lat": "59.919088","lng": "30.325381"},{"id": "2565","name": "Фонтанчик с детишками","kind": "Monument","address": "Солунская улица.","lat": "60.016233","lng": "30.301165"},{"id": "2561","name": "Монах во дворе","kind": "Monument","address": "пр. Комендантский, д. 10.","lat": "60.004436","lng": "30.262381"},{"id": "2535","name": "Августин Бетанкур (Два бюста)","kind": "Monument","address": "Обуховская площадь.","lat": "59.922044","lng": "30.317284"},{"id": "2507","name": "Солдатик","kind": "Monument","address": "Михайловский замок.","lat": "59.939809","lng": "30.337869"},{"id": "2499","name": "Еще один памятник Петру I","kind": "Monument","address": "г. Петергоф.","lat": "59.887769","lng": "29.899489"},{"id": "2459","name": "Плеханов и рабочий","kind": "Monument","address": "Технологическая площадь.","lat": "59.917186","lng": "30.318678"},{"id": "2457","name": "Графине Шереметевой","kind": "Monument","address": "Литейный проспект, д. 53.","lat": "59.936328","lng": "30.347182"},{"id": "2445","name": "Памятник «Девушка с веслом» в ЦПКО","kind": "Monument","address": "Безымянный остров реки Крестовки.","lat": "59.975534","lng": "30.27649"},{"id": "2441","name": "Золотые мальчики","kind": "Monument","address": "Ул. Литовская, д. 2.","lat": "59.977845","lng": "30.340141"},{"id": "2438","name": "Мандельштам у Ахматовой","kind": "Monument","address": "Литейный проспект, д. 53.","lat": "59.936371","lng": "30.34671"},{"id": "2417","name": "Ломоносов со сферой ","kind": "Monument","address": "Менделеевская линия .","lat": "59.940336","lng": "30.301692"},{"id": "2306","name": "Мироносец","kind": "Monument","address": "г. Пушкин, Кузьминское шоссе, д. 66.","lat": "59.73221","lng": "30.375188"},{"id": "2284","name": "Памятник архитекторам Петербурга","kind": "Monument","address": "м. Горьковская.","lat": "59.955325","lng": "30.317273"},{"id": "2278","name": "Чу'дный","kind": "Monument","address": "ул. Ломоносова, д. 1  КГИОП (закрытое помещение).","lat": "59.929023","lng": "30.333837"},{"id": "2267","name": "Родина-Мать в Можайке","kind": "Monument","address": "ул. Ждановская, д. 11.","lat": "59.955075","lng": "30.286053"},{"id": "2245","name": "Царь-учредитель Госбанка","kind": "Monument","address": "Набережная реки Фонтанки, д. 72.","lat": "59.927471","lng": "30.337637"},{"id": "2200","name": "Можайский в Можайке","kind": "Monument","address": "ул. Ждановская, д. 13.","lat": "59.95653","lng": "30.285646"},{"id": "2141","name": "Памятный знак подвигу Александра Рожнова","kind": "Monument","address": "Новосмоленская набережная.","lat": "59.948592","lng": "30.223341"},{"id": "2140","name": "Чкалов с крюком в голове","kind": "Monument","address": "пр. Чкаловский, д. 1.","lat": "59.957917","lng": "30.287362"},{"id": "2119","name": "Трудолюбивые ребята","kind": "Monument","address": "Соляной переулок.","lat": "59.942532","lng": "30.341436"},{"id": "2084","name": "Памятник первому мэру Петербурга","kind": "Monument","address": "Большой проспект В.О..","lat": "59.931716","lng": "30.25676"},{"id": "2037","name": "Ленин за решёткой","kind": "Monument","address": "пр. Левашовский, д. 26.","lat": "59.966052","lng": "30.284807"},{"id": "2031","name": "Женские скульптуры Муринского парка","kind": "Monument","address": "Муринский парк.","lat": "60.032864","lng": "30.378081"},{"id": "2000","name": "Памятник Зощенко","kind": "Monument","address": "Сестрорецкое кладбище.","lat": "60.109312","lng": "29.967187"},{"id": "1949","name": "Памятник воинам-интернационалистам","kind": "Monument","address": "пр. Славы, д. 45.","lat": "59.85873","lng": "30.393508"},{"id": "1921","name": "Памятник К.Э. Циолковскому","kind": "Monument","address": "угол набережной Обводного канала и ул. Циолковского.","lat": "59.909422","lng": "30.287744"},{"id": "1898","name": "Памятник Анне Ахматовой","kind": "Monument","address": "набережная Робеспьера.","lat": "59.949142","lng": "30.36364"},{"id": "1872","name": "Скульптура на улице Турку","kind": "Monument","address": "ул. Турку.","lat": "59.86682","lng": "30.385146"},{"id": "1868","name": "Памятник великому футболисту и хоккеисту Всеволоду Боброву","kind": "Monument","address": "Курортный район, Сестрорецк.","lat": "60.092881","lng": "29.956172"},{"id": "1864","name": "Ленин","kind": "Monument","address": "Сестрорецк, ул. Парковая, д. 18.","lat": "60.098634","lng": "29.950426"},{"id": "1861","name": "Фотомодель на отдыхе","kind": "Monument","address": "ул. Тульская, д. 8.","lat": "59.943611","lng": "30.390023"},{"id": "1856","name": "Ленин со взорванной 'спиной'","kind": "Monument","address": "площадь Ленина.","lat": "59.954082","lng": "30.355615"},{"id": "1848","name": "Тургенев в странном сюртуке","kind": "Monument","address": "Манежная площадь, сквер.","lat": "59.93603","lng": "30.338953"},{"id": "1847","name": "Памятник Николаю II в Царском Селе","kind": "Monument","address": "пр. Академический, д. 34.","lat": "59.728102","lng": "30.388542"},{"id": "1846","name": "Бюст святому царю-мученику Николаю II","kind": "Monument","address": "пр. Лиговский, д. 128.","lat": "59.915989","lng": "30.353945"},{"id": "1840","name": "Мальчик с большой рыбой","kind": "Monument","address": "Парк Победы.","lat": "59.868272","lng": "30.323052"},{"id": "1823","name": "Памятник детям Беслана","kind": "Monument","address": "Малоохтинский проспект, дом 52.","lat": "59.933041","lng": "30.403822"},{"id": "1800","name": "Герои советского спорта","kind": "Monument","address": "пр. Лесной, д. 38.","lat": "59.974768","lng": "30.345219"},{"id": "1797","name": "Памятник военным медикам","kind": "Monument","address": "пл. Военных медиков.","lat": "59.959605","lng": "30.346533"},{"id": "1790","name": "Испытание","kind": "Monument","address": "пр. Добролюбова.","lat": "59.951579","lng": "30.294964"},{"id": "1756","name": "Памятник Д.И. Менделееву","kind": "Monument","address": "пр. Московский, д. 26 / пр. Загородный, д. 49.","lat": "59.918194","lng": "30.320965"},{"id": "1750","name": "Триптих жертвам политических репрессий","kind": "Monument","address": "Набержная Робеспьера, д. 10а.","lat": "59.949759","lng": "30.364042"},{"id": "1742","name": "Монумент пионерской организации","kind": "Monument","address": "ул. Пионерская.","lat": "59.961359","lng": "30.280839"},{"id": "1734","name": "Памятник детям революции","kind": "Monument","address": "ул. Пионерская, д. 41.","lat": "59.959503","lng": "30.287077"},{"id": "1733","name": "Памятник руководителю города со словом чорт","kind": "Monument","address": "Мясокомбинат .","lat": "59.820248","lng": "30.354295"},{"id": "1724","name": "Памятник погибшим в ВОВ","kind": "Monument","address": "пр-т Медиков дом 5. Во дворе предприятия. Вход во двор всегда открыт..","lat": "59.96943","lng": "30.314799"},{"id": "1714","name": "Памятник Ольге Берггольц","kind": "Monument","address": "ул. Гороховая, д. 57А (двор).","lat": "59.926021","lng": "30.325255"},{"id": "1687","name": "Хищник в городе","kind": "Monument","address": "пр. Энгельса, д. 148.","lat": "60.053858","lng": "30.334454"},{"id": "1649","name": "Памятник первостроителям Петербурга в Сампсониевском саду","kind": "Monument","address": "пр. Большой Сампсониевский, д. 41.","lat": "59.968317","lng": "30.343015"},{"id": "1647","name": "Царицын и Ольгин павильоны","kind": "Monument","address": "г. Петергоф.","lat": "59.880974","lng": "29.905024"},{"id": "1634","name": "Фигура в окне","kind": "Monument","address": "ул. 6-я красноармейская, д. 8 .","lat": "59.912143","lng": "30.315769"},{"id": "1629","name": "Чудная русалочка","kind": "Monument","address": "Мытнинская набережная.","lat": "59.948492","lng": "30.30693"},{"id": "1587","name": "Спанч Боб","kind": "Monument","address": "перекресток Лиговского и Невского проспектов.","lat": "59.930782","lng": "30.360694"},{"id": "1579","name": "Джамбул","kind": "Monument","address": "пер. Джамбула.","lat": "59.92469","lng": "30.337068"},{"id": "1578","name": "Два ангела на одно лицо","kind": "Monument","address": "Кадетская линия, д. 27А.","lat": "59.946288","lng": "30.285999"},{"id": "1576","name": "Пожарный","kind": "Monument","address": "Большеохтинский проспект, д. 3.","lat": "59.946234","lng": "30.409832"},{"id": "1573","name": "Первая всадница","kind": "Monument","address": "ул. Миллионная, д. 5.","lat": "59.94531","lng": "30.329235"},{"id": "1567","name": "Скульптору Петру Клодту","kind": "Monument","address": "3-я линия В.О., д. 2.","lat": "59.939208","lng": "30.288173"},{"id": "1560","name": "Дедушка Ленин","kind": "Monument","address": "1 линия В.О., д. 48.","lat": "59.94536","lng": "30.284481"},{"id": "1551","name": "Памятник студенту","kind": "Monument","address": "ул. Политехническая, д. 27.","lat": "60.001489","lng": "30.369485"},{"id": "1393","name": "Памятник героям Краснодона","kind": "Monument","address": "Лифляндская ул., 12, парк Екатерингоф.","lat": "59.901978","lng": "30.260253"},{"id": "1386","name": "Памятник Н.В.Гоголю","kind": "Monument","address": "ул. Малая Конюшенная, д.16.","lat": "59.936003","lng": "30.324833"},{"id": "1203","name": "Архангел Михаил","kind": "Monument","address": "Люблинский переулок, д. 5.","lat": "59.916965","lng": "30.29173"},{"id": "1143","name": "Кора","kind": "Monument","address": "Малая Посадская ул.?.","lat": "59.957129","lng": "30.326432"},{"id": "1138","name": "Памятник Айвазовскому","kind": "Monument","address": "Кронштадт, Макаровская набережная (у Итальянского пруда).","lat": "59.987947","lng": "29.768516"},{"id": "1119","name": "Кронштадский водовоз","kind": "Monument","address": "Кронштадт, ул. Ленинградская, д. 2 .","lat": "59.987204","lng": "29.792743"},{"id": "1110","name": "Сказки детства","kind": "Monument","address": "Пр. Королева, д. 29, 31.","lat": "60.014059","lng": "30.263586"},{"id": "1085","name": "Скульптура у выставочного зала на Охте","kind": "Monument","address": "Свердловская набережная, д. 64.","lat": "59.950037","lng": "30.408089"},{"id": "1084","name": "Знаменитые петербуржцы","kind": "Monument","address": "Сведловская набережная, д. 64.","lat": "59.950037","lng": "30.408089"},{"id": "1083","name": "Рука творца (памятник Трезини)","kind": "Monument","address": "Невский проспект, д. 179/2 .","lat": "59.922724","lng": "30.385308"},{"id": "1081","name": "Капитан Кусто","kind": "Monument","address": "ул. Громова, д. 4.","lat": "59.91816","lng": "30.414835"},{"id": "1068","name": "Бравый брандмайор в Рыбацком","kind": "Monument","address": "Прибрежная улица.","lat": "59.837472","lng": "30.510156"},{"id": "1064","name": "'Сто двадцать пять блокадных грамм с огнем и кровью пополам...'","kind": "Monument","address": "ул. Политехническая, д. 11.","lat": "59.993365","lng": "30.359562"},{"id": "1060","name": "Необычный памятник на Смоленском","kind": "Monument","address": "Васильевский остров, Смоленское кладбище.","lat": "59.944494","lng": "30.250821"},{"id": "1057","name": "Скульптура у Музея современного искусства 'Эрарта' ","kind": "Monument","address": "29-я линия В.О., д. 2.","lat": "59.93195","lng": "30.252115"},{"id": "1054","name": "Пожарный на Садовой","kind": "Monument","address": "ул. Большая Подъяческая, д. 26.","lat": "59.921813","lng": "30.305735"},{"id": "1031","name": "Девушка на рельсах","kind": "Monument","address": "Московский парк Победы.","lat": "59.868067","lng": "30.328885"},{"id": "1005","name": "Детям блокады","kind": "Monument","address": "ул. Наличная, д. 55.","lat": "59.953268","lng": "30.23564"},{"id": "1004","name": "Есенин","kind": "Monument","address": "Таврический сад.","lat": "59.944819","lng": "30.371097"},{"id": "998","name": "Памятник Рериху","kind": "Monument","address": "Большой проспект В.О..","lat": "59.934547","lng": "30.25684"},{"id": "997","name": "Делу учителя","kind": "Monument","address": "Учительская улица.","lat": "60.031512","lng": "30.406778"},{"id": "996","name": "Режиссер Товстоногов","kind": "Monument","address": "Петровская набережная, д. 4.","lat": "59.953736","lng": "30.330277"},{"id": "978","name": "Памятник К.К. Гроту со слепой девочкой","kind": "Monument","address": "пр. Шаумяна, д. 44.","lat": "59.92741","lng": "30.42398"},{"id": "918","name": "Юнгам Балтики","kind": "Monument","address": "Площадь Балтийских Юнг.","lat": "59.9517","lng": "30.245997"},{"id": "900","name": "Боги Олимпа","kind": "Monument","address": "Московский проспект, д. 165.","lat": "59.866517","lng": "30.319928"},{"id": "873","name": "Новая Святыня","kind": "Monument","address": "Московский проспект, д. 100.","lat": "59.89779","lng": "30.321617"},{"id": "839","name": "Битлы на Пушкинской","kind": "Monument","address": "Пушкинская 10.","lat": "59.92956","lng": "30.358844"},{"id": "828","name": "Мадам Баттерфляй","kind": "Monument","address": "Университетская набережная, д. 11.","lat": "59.940023","lng": "30.298701"},{"id": "825","name": "Цирк приехал!","kind": "Monument","address": "Набережная реки Фонтанки, д. 3.","lat": "59.938347","lng": "30.341829"},{"id": "824","name": "Вера","kind": "Monument","address": "Пр. Стачек, д. 186 а.","lat": "59.849885","lng": "30.234463"},{"id": "807","name": "Памятник Набокову","kind": "Monument","address": "Университетская наб., д. 11.","lat": "59.940141","lng": "30.299384"},{"id": "805","name": "Петр I в Петропавловской крепости","kind": "Monument","address": "Петропавловская крепость, д. 12.","lat": "59.950682","lng": "30.318949"},{"id": "800","name": "Чапай и Петька","kind": "Monument","address": "ул. Куйбышева, д. 2.","lat": "59.954502","lng": "30.324788"},{"id": "755","name": "Народный памятник 6-й роте на улице Добровольцев","kind": "Monument","address": "ул. Добровольцев, заросший пустырь между домами 16 и 26.","lat": "59.839479","lng": "30.167466"},{"id": "743","name": "Красавцы-мужчины у Кузнечного рынка","kind": "Monument","address": "Кузнечный пер., д. 3.","lat": "59.92736","lng": "30.349348"},{"id": "738","name": "Цой ","kind": "Monument","address": "раскиданы по городу.","lat": "59.934227","lng": "30.339512"},{"id": "736","name": "Место дуэли","kind": "Monument","address": "Парк Лесотехнической академии.","lat": "59.991979","lng": "30.343177"},{"id": "726","name": "Памятник разрушенным церквям «Три ангела» на улице Правды","kind": "Monument","address": "ул. Правды, д. 14.","lat": "59.922598","lng": "30.341569"},{"id": "723","name": "Слепой","kind": "Monument","address": "ул. Правды, д.12.","lat": "59.923072","lng": "30.342683"},{"id": "722","name": "Кентаврёнок","kind": "Monument","address": "ул. Караванная, д. 12.","lat": "59.936233","lng": "30.341811"},{"id": "691","name": "Памятник водовозу","kind": "Monument","address": "ул. Шпалерная, д. 56, напротив Таврического дворца.","lat": "59.948965","lng": "30.375004"},{"id": "685","name": "Памятник Георгию Вицину","kind": "Monument","address": "г. Зеленогорск, Приморское шоссе, ЦПКиО.","lat": "60.192178","lng": "29.701178"},{"id": "683","name": "Памятник М.Зощенко у библиотеки","kind": "Monument","address": "Сестрорецк, ул. Токарева 7.","lat": "60.088189","lng": "29.956066"},{"id": "682","name": "Охтенка","kind": "Monument","address": "Сад 'Нева', пересечение шоссе Революции и Среднеохтенского проспекта.","lat": "59.959404","lng": "30.415428"},{"id": "628","name": "Памятник трубочисту","kind": "Monument","address": "ул.Б.Московская, д.1-3, во дворе.","lat": "59.927229","lng": "30.346824"},{"id": "623","name": "Фонтан 'Девочка Удэ'","kind": "Monument","address": "г. Зеленогорск, сквер у Приморского шоссе, напротив православного храма.","lat": "60.192429","lng": "29.704304"},{"id": "608","name": "Скульптурная группа 'Октябрь' (памятник гей-клубу)","kind": "Monument","address": "Греческая площадь.","lat": "59.936021","lng": "30.364512"},{"id": "595","name": "Есенин в Озерках","kind": "Monument","address": "ул. Есенина, д.1 (Северный пр. 3).","lat": "60.033459","lng": "30.329585"},{"id": "585","name": "Секрет Менделеева","kind": "Monument","address": "Московский проспект, д. 19.","lat": "59.917939","lng": "30.317503"},{"id": "584","name": "Балкончик с фриками","kind": "Monument","address": "ул. Белинского, д. 9.","lat": "59.938013","lng": "30.34642"},{"id": "581","name": "Мама с карапузом","kind": "Monument","address": "наб. р. Фонтанки, 146 (или 148, так и не разобралась).","lat": "59.915531","lng": "30.286817"},{"id": "575","name": "Бабушкино место","kind": "Monument","address": "г. Зеленогорск, пр. Ленина.","lat": "60.206667","lng": "29.709451"},{"id": "574","name": "Памятник Штиглицу","kind": "Monument","address": "Петродворец, ж/д станция 'Новый Петергоф'.","lat": "59.86378","lng": "29.927473"},{"id": "570","name": "Парк странной скульптуры в Петергофе","kind": "Monument","address": "В Петергофе на углу Разводной улицы и Санкт-Петербургского проспекта.","lat": "59.881245","lng": "29.904449"},{"id": "568","name": "Проволочные человечки","kind": "Monument","address": "Ст. м. 'Политехническая'.","lat": "60.008887","lng": "30.370962"},{"id": "566","name": "Скульптура Советская","kind": "Monument","address": "Александровский парк.","lat": "59.953754","lng": "30.317494"},{"id": "562","name": "Гринписовцы","kind": "Monument","address": "Около м. 'Пионерская'.","lat": "60.002476","lng": "30.296608"},{"id": "557","name": "Смерть от рубероида","kind": "Monument","address": "Тележный переулок, д. 3.","lat": "59.928424","lng": "30.374402"},{"id": "556","name": "Крутые ребята","kind": "Monument","address": "Полюстровский пр., д. 85.","lat": "59.986133","lng": "30.358888"},{"id": "535","name": "Памятник Человеку-невидимке в Петербурге","kind": "Monument","address": "Наб. Фонтанки, д. 132.","lat": "59.916974","lng": "30.301333"},{"id": "530","name": "Царская прогулка","kind": "Monument","address": "г. Стрельна, пристань в месте впадения Портового канала в Финский залив.","lat": "59.861074","lng": "30.047011"},{"id": "528","name": "Памятник Гулливеру","kind": "Monument","address": "Университетская наб., д. 11.","lat": "59.940217","lng": "30.299106"},{"id": "527","name": "Памятник Блоку","kind": "Monument","address": "Университетская наб., д. 11.","lat": "59.940023","lng": "30.299707"},{"id": "524","name": "Памятник Анне Ахматовой","kind": "Monument","address": "Университетская наб., д.11.","lat": "59.940226","lng": "30.298638"},{"id": "523","name": "Памятник Иосифу Бродскому","kind": "Monument","address": "Университетская набережная, д. 11.","lat": "59.93987","lng": "30.298998"},{"id": "522","name": "Памятник Любви (памятник О. и Н. Мандельштам)","kind": "Monument","address": "Университетская наб, д. 7/9.","lat": "59.940736","lng": "30.299707"},{"id": "502","name": "Материнская ласка","kind": "Monument","address": "ул. Володи Ермака, 2.","lat": "59.921976","lng": "30.281382"},{"id": "494","name": "Двое под зонтом","kind": "Monument","address": "Гражданский пр., д.23, к.4.","lat": "60.004478","lng": "30.394803"},{"id": "491","name": "Танцующие девочки","kind": "Monument","address": "Каменноостровский пр., д. 56а.","lat": "59.972119","lng": "30.304993"},{"id": "488","name": "Поэт и его муза","kind": "Monument","address": "пр. Пархоменко, д. 43.","lat": "59.997892","lng": "30.35605"},{"id": "486","name": "Мечтающий мальчуган","kind": "Monument","address": "Парк у Серебряного пруда.","lat": "60.003601","lng": "30.347668"},{"id": "455","name": "Ангел","kind": "Monument","address": "ул. Рылеева, д. 37.","lat": "59.942079","lng": "30.36258"},{"id": "449","name": "Пень-старик в ЦПКиО","kind": "Monument","address": "Елагин остров, д. 4.","lat": "59.979277","lng": "30.270153"},{"id": "445","name": "Дворник в валенках","kind": "Monument","address": "пл. Островского, д. 9.","lat": "59.931445","lng": "30.334867"},{"id": "437","name": "Мальчик у пруда","kind": "Monument","address": "Парк Победы.","lat": "59.868067","lng": "30.328885"},{"id": "436","name": "Диво-остров","kind": "Monument","address": "Ул. Кемская, д.1.","lat": "59.972159","lng": "30.255555"},{"id": "434","name": "Шар","kind": "Monument","address": "пр. Невский, д. 26.","lat": "59.935705","lng": "30.325408"},{"id": "411","name": "Балтийская жемчужина","kind": "Monument","address": "Петергофское шоссе, д. 47А.","lat": "59.847684","lng": "30.150946"},{"id": "410","name": "Древо Жизни","kind": "Monument","address": "Петергофское шоссе, д. 47А.","lat": "59.847856","lng": "30.154719"},{"id": "408","name": "Скульптуры у завода Сан-Галли","kind": "Monument","address": "Лиговский пр., д. 58.","lat": "59.92396","lng": "30.357316"},{"id": "392","name": "Памятник олимпийским чемпионам по греко-римской борьбе","kind": "Monument","address": "Каменноостровский проспект, д. 68.","lat": "59.981222","lng": "30.299115"},{"id": "391","name": "Загорающая женщина","kind": "Monument","address": "Морская набережная, д. 17.","lat": "59.942849","lng": "30.208043"},{"id": "389","name": "Скульптура на берегу Среднего Суздальского озера","kind": "Monument","address": "Большая Озерная улица, д. 55.","lat": "60.040114","lng": "30.304549"},{"id": "266","name": "Памятник с мобильным телефоном","kind": "Monument","address": "7-я Красноармейская, д. 11.","lat": "59.91185","lng": "30.313308"},{"id": "265","name": "Дворник из металлолома на Красноармейской улице","kind": "Monument","address": "4-я Красноармейская, д. 4.","lat": "59.913609","lng": "30.316326"},{"id": "239","name": "Русалка","kind": "Monument","address": "ул. Танкиста Хрустицкого, д. 9.","lat": "59.838182","lng": "30.250363"},{"id": "235","name": "Памятник 'Подвигу пожарных Ленинграда' или Северный Лаокоон ","kind": "Monument","address": "Большой проспект В.О., д. 73.","lat": "59.933893","lng": "30.263972"},{"id": "194","name": "Борьба мальчишек из-за гуся","kind": "Monument","address": "Загородный проспект, д. 40.","lat": "59.923685","lng": "30.336835"},{"id": "156","name": "Памятник Нобелю","kind": "Monument","address": "Петроградская наб., 24 .","lat": "59.960629","lng": "30.3344"},{"id": "149","name": "Памятник бомбардиру Василию","kind": "Monument","address": "7-я линия, д. 34.","lat": "59.940997","lng": "30.280654"},{"id": "146","name": "Памятник Городовому","kind": "Monument","address": "ул. Малая Конюшенная.","lat": "59.938513","lng": "30.326028"},{"id": "145","name": "Девушка с приветом","kind": "Monument","address": "Приморский пр., 54.","lat": "59.984427","lng": "30.233295"},{"id": "134","name": "Памятник фотографу","kind": "Monument","address": "Малая Садовая ул., недалеко от Невского проспекта.","lat": "59.934452","lng": "30.337374"},{"id": "133","name": "Памятник Остапу Бендеру","kind": "Monument","address": "Итальянская ул., д. 4.","lat": "59.937008","lng": "30.3287"},{"id": "132","name": "Памятник фонарщику","kind": "Monument","address": "ул. Одесская, д. 1.","lat": "59.945837","lng": "30.387778"},{"id": "72","name": "Памятник менеджеру","kind": "Monument","address": "Аптекарская набережная, д.20.","lat": "59.977314","lng": "30.321222"},{"id": "50","name": "Памятник бравому солдату Швейку","kind": "Monument","address": "Балканская площадь.","lat": "59.829563","lng": "30.380655"},{"id": "48","name": "Парк современной скульптуры на улице Правды","kind": "Monument","address": "Ул. Правды.","lat": "59.924064","lng": "30.343662"},{"id": "40","name": "Памятник женщинам-блокадницам","kind": "Monument","address": "Кронверкская ул., д.14.","lat": "59.960543","lng": "30.31108"},{"id": "17","name": "Индейские боги","kind": "Monument","address": "Университетская набережная, д. 3.","lat": "59.941542","lng": "30.304648"},{"id": "14","name": "Размышление о маленьком принце","kind": "Monument","address": "Университетская набережная, д.11.","lat": "59.939978","lng": "30.299258"},{"id": "13","name": "Памятник перекуру","kind": "Monument","address": "Университетская набережная, д.11.","lat": "59.940055","lng": "30.298719"},{"id": "6391","name": "Телефон инженера запечетлённый на плитке пола при постройке!!!","kind": "Monument","address": "Воронежский проезд (перед Апраксиным рынком).","lat": "59.929148","lng": "30.325524"},{"id": "6328","name": "Скульптурная композиция 'Новобрачные'","kind": "Monument","address": "г.Колпино, наб. Комсомольского канала, рядом с Думским мостом .","lat": "59.746802","lng": "30.605177"},{"id": "6314","name": "Стул чиновника ","kind": "Monument","address": "Средний пр., 57.","lat": "59.940804","lng": "30.269055"},{"id": "6276","name": "В честь первой морской победы Петра I","kind": "Monument","address": "пл.Стачек.","lat": "59.904602","lng": "30.256764"},{"id": "6173","name": "Пуговица","kind": "Monument","address": "пр. Левашовский, д. 13а.","lat": "59.966678","lng": "30.286853"},{"id": "6086","name": "Памятник С. Есенину","kind": "Monument","address": "парк Есенина.","lat": "59.910307","lng": "30.484141"},{"id": "6072","name": "Триколоры над Невой (Летучий голландец)","kind": "Monument","address": "Мытнинская набережная .","lat": "59.948005","lng": "30.306072"},{"id": "5875","name": "Волшебус","kind": "Monument","address": "м. Технологический институт.","lat": "59.916437","lng": "30.318824"},{"id": "5851","name": "Памятник Капле","kind": "Monument","address": "пер. Крапивный, д. 2.","lat": "59.969021","lng": "30.337866"},{"id": "5822","name": "Морской глобус","kind": "Monument","address": "Большой проспект В.О., д. 102.","lat": "59.926483","lng": "30.241279"},{"id": "5809","name": "Московские Триумфальные ворота","kind": "Monument","address": "Площадь Московские Ворота.","lat": "59.891316","lng": "30.319626"},{"id": "5722","name": "Солнечные часы во дворе филологического факультета СПбГУ","kind": "Monument","address": "Университетская набережная, д. 11.","lat": "59.940379","lng": "30.298784"},{"id": "5719","name": "Поклонный крест памяти героев","kind": "Monument","address": "ул. Ленсовета, д. 12.","lat": "59.856795","lng": "30.331613"},{"id": "5663","name": "Стулья-цветы Tulpi  ","kind": "Monument","address": "пр. Добролюбова.","lat": "59.95082","lng": "30.293337"},{"id": "5637","name": "Удивительные деревья на Малом проспекте","kind": "Monument","address": "угол 6-й линии и Малого проспекта В.О..","lat": "59.946838","lng": "30.274171"},{"id": "5568","name": "Желтая Субмарина","kind": "Monument","address": "Двор по наб.кан. Грибоедова, 18/20.","lat": "59.934219","lng": "30.326958"},{"id": "5567","name": "Интересные шары в Измайловском саду","kind": "Monument","address": "Измайловский сад.","lat": "59.919576","lng": "30.312859"},{"id": "5531","name": "'Запор' на крыше","kind": "Monument","address": "Выборгское шоссе, д. 116.","lat": "60.055871","lng": "30.307712"},{"id": "5527","name": "Автомобиль на крыше","kind": "Monument","address": "пер. Альпийский, д. 30.","lat": "59.854255","lng": "30.387491"},{"id": "5525","name": "Ракета на Невском","kind": "Monument","address": "пр. Невский, д. 20.","lat": "59.936054","lng": "30.3208"},{"id": "5521","name": "Северные цветы","kind": "Monument","address": "пр. Северный, д. 69/98.","lat": "60.021501","lng": "30.405634"},{"id": "5387","name": "Деревянный паровозик ","kind": "Monument","address": "Фермское шоссе, д. 32.","lat": "60.016886","lng": "30.309797"},{"id": "5315","name": "Бункер в парке Лесотехнической Академии","kind": "Monument","address": "Парк ЛТА, ул. Новороссийская, д. 5 .","lat": "59.993703","lng": "30.349788"},{"id": "5133","name": "Облако","kind": "Monument","address": "Новочеркаский проспект.","lat": "59.93346","lng": "30.408094"},{"id": "4988","name": "Памятный знак допетровской морской победе","kind": "Monument","address": "г. Кронштадт, Газовый Завод, д.1.","lat": "59.938806","lng": "30.314278"},{"id": "4986","name": "Сосновая шишка","kind": "Monument","address": "пр. Энгельса, д. 115, кор. 2.","lat": "60.038883","lng": "30.328268"},{"id": "4760","name": "Бочка и кружка с пивом ","kind": "Monument","address": "ул. Большая Морская, д. 3.","lat": "59.937105","lng": "30.317487"},{"id": "4620","name": "Обелиск жертвам взрыва на даче П.А.Столыпина в 1906 году","kind": "Monument","address": "Аптекарская набережная, д. 6.","lat": "59.9726","lng": "30.327798"},{"id": "4553","name": "Деревце во дворе","kind": "Monument","address": "ул. Итальянская, д. 16.","lat": "59.935435","lng": "30.342795"},{"id": "4499","name": "Очки","kind": "Monument","address": "Средний проспект В.О., д. 47.","lat": "59.941475","lng": "30.272926"},{"id": "4400","name": "Летучий корабль","kind": "Monument","address": "г. Пушкин, Кузьминское шоссе.","lat": "59.731915","lng": "30.37762"},{"id": "4289","name": "ДОТ","kind": "Monument","address": "пр. Обуховской обороны, д. 287К2.","lat": "59.848598","lng": "30.479704"},{"id": "4284","name": "Космодром ","kind": "Monument","address": "деревня Кудрово.","lat": "59.907086","lng": "30.507191"},{"id": "4139","name": "Кораблики с Уральского моста","kind": "Monument","address": "Уральский мост, набережная реки Смоленки.","lat": "59.948695","lng": "30.268563"},{"id": "4138","name": "Два сердца","kind": "Monument","address": "Елагин остров, у 1-го Елагина моста.","lat": "59.977492","lng": "30.271664"},{"id": "4132","name": "'Двойное' сердце","kind": "Monument","address": "ул. Победы, д. 16 (во дворе).","lat": "59.862596","lng": "30.322183"},{"id": "4036","name": "Иосифу Бродскому на Малой Охте","kind": "Monument","address": "ул. Стахановцев, д. 19.","lat": "59.92373","lng": "30.409936"},{"id": "4005","name": "Момент вдохновения","kind": "Monument","address": "Соляной пер., д.13.","lat": "59.943507","lng": "30.341075"},{"id": "3981","name": "Обелиск памяти казненных декабристов","kind": "Monument","address": "Сад декабристов.","lat": "59.95358","lng": "30.239021"},{"id": "3894","name": "Скульптура в Малоохтинском парке","kind": "Monument","address": "пр. Новочеркасский, д. 22.","lat": "59.932334","lng": "30.41132"},{"id": "3876","name": "Померанцевое (апельсиновое) дерево ","kind": "Monument","address": "г. Ломоносов, у входа в Верхний парк.","lat": "59.910798","lng": "29.761309"},{"id": "3836","name": "Фонтан 'Омега'","kind": "Monument","address": "Песочная набережная, д. 40.","lat": "59.967835","lng": "30.284809"},{"id": "3603","name": "Дерево-сердце (дерево любви)","kind": "Monument","address": "Сад Опочинина.","lat": "59.928717","lng": "30.238547"},{"id": "3596","name": "Детская площадка на Некрасова","kind": "Monument","address": "между домами 19 и 21 по улице Некрасова.","lat": "59.938495","lng": "30.357714"},{"id": "3573","name": "Памятник сигарете","kind": "Monument","address": "ул. Софийская, д. 44.","lat": "59.869558","lng": "30.41179"},{"id": "3525","name": "Веселая скамейка или 'Курить вредно!'","kind": "Monument","address": "Набережная канала Грибоедова, д. 20.","lat": "59.934217","lng": "30.326843"},{"id": "3461","name": "Фонтан 'Глаз'","kind": "Monument","address": "ул. Ярослава Гашека, д. 21.","lat": "59.835832","lng": "30.406863"},{"id": "3433","name": "Артиллерийское орудие на площади Мужества","kind": "Monument","address": "Площадь Мужества.","lat": "59.998189","lng": "30.364404"},{"id": "3422","name": "Графская-Песочный","kind": "Monument","address": "Курортный р-н, пос. Песочный, ул. Ленинградская, д. 10.","lat": "60.126114","lng": "30.157971"},{"id": "3412","name": "Трамвайный вагон","kind": "Monument","address": "Проспект Стачек.","lat": "59.859563","lng": "30.25626"},{"id": "3401","name": "Сквер знаков зодиака","kind": "Monument","address": "Волоколамский переулок, д. 9.","lat": "59.919978","lng": "30.349806"},{"id": "3385","name": "Царь-ванна","kind": "Monument","address": "г. Пушкин, Баболовский парк.","lat": "59.708633","lng": "30.344414"},{"id": "3355","name": "Фонтан клиники нервных болезней ВМА","kind": "Monument","address": "пр. Лесной, д. 2 .","lat": "59.961249","lng": "30.352424"},{"id": "3354","name": "Памятный знак Воинам-афганцам на территории Кадетского ракетно-артиллерийского корпуса","kind": "Monument","address": "Московский проспект, д. 17.","lat": "59.918814","lng": "30.31691"},{"id": "3353","name": "Земной шар измерен с точностью до микрона","kind": "Monument","address": "пр. Московский, д. 19.","lat": "59.917581","lng": "30.316731"},{"id": "3288","name": "Памятник блокадной артезианской скважине","kind": "Monument","address": "ул. Политехническая, д. 29.","lat": "60.008266","lng": "30.37532"},{"id": "3285","name": "Знаки Зодиака во дворе","kind": "Monument","address": "пр. Культуры, д. 24.","lat": "60.048786","lng": "30.37522"},{"id": "3284","name": "Карандаши - ракеты","kind": "Monument","address": "пр. Художников, д. 24.","lat": "60.046086","lng": "30.351064"},{"id": "3118","name": "Дракон","kind": "Monument","address": "пр. Измайловский, д. 13.","lat": "59.914239","lng": "30.307161"},{"id": "3116","name": "Цветочек аленький","kind": "Monument","address": "ул. Решетникова, д. 9.","lat": "59.878098","lng": "30.325211"},{"id": "3079","name": "300 лет Петербургской журналистике типографскому и издательскому делу","kind": "Monument","address": "м. 'Горьковская'.","lat": "59.952936","lng": "30.32238"},{"id": "3049","name": "Пирамида Речников","kind": "Monument","address": "ул. Гагаринская, д. 1 .","lat": "59.948358","lng": "30.340831"},{"id": "2997","name": "Мемориал рок-музыке в Пушкине","kind": "Monument","address": "г. Пушкин, ул. Новодеревенская, д. 16а.","lat": "59.7249","lng": "30.444112"},{"id": "2981","name": "Московская застава","kind": "Monument","address": "м. 'Московские Ворота'.","lat": "59.892726","lng": "30.318729"},{"id": "2972","name": "Самогонный аппарат","kind": "Monument","address": "Каменноостровский проспект.","lat": "59.956186","lng": "30.321465"},{"id": "2903","name": "Красивая довоенная пожарная машина","kind": "Monument","address": "Пушкин, ул. Леонтьевская, д. 26.","lat": "59.721189","lng": "30.404514"},{"id": "2900","name": "Памятники на территории Адмиралтейских верфей","kind": "Monument","address": "Набережная реки Фонтанки, д. 203.","lat": "59.917069","lng": "30.277519"},{"id": "2889","name": "Гранитные шары на стрелке Васильевского острова","kind": "Monument","address": "Стрелка Васильевского острова.","lat": "59.944061","lng": "30.306949"},{"id": "2876","name": "Большой Пулковский Радиотелескоп ","kind": "Monument","address": "Пулковские высоты.","lat": "59.768155","lng": "30.323096"},{"id": "2868","name": "Колокол мира","kind": "Monument","address": "Парк имени Академика Сахарова.","lat": "59.979637","lng": "30.413488"},{"id": "2867","name": "Памятник пионерскому значку","kind": "Monument","address": "Пр. Мечникова, д. 5 кор. 1.","lat": "59.983571","lng": "30.417913"},{"id": "2786","name": "Памятник 'Блокадному колодцу'","kind": "Monument","address": "Проспект Непокорённых, дом 6.","lat": "59.99744","lng": "30.372706"},{"id": "2773","name": "Розовое авто у отеля","kind": "Monument","address": "Набережная канала Грибоедова, д. 20.","lat": "59.933585","lng": "30.327441"},{"id": "2739","name": "Чайник в Муринском парке","kind": "Monument","address": "Пр. Луначарского, д. 57.","lat": "60.03336","lng": "30.379235"},{"id": "2725","name": "Юбилейная Арка-Звонница на Крестовском острове","kind": "Monument","address": "Северная дорога, д. 15 .","lat": "59.975356","lng": "30.229962"},{"id": "2688","name": "Дерево с котом - подарок кузнецов","kind": "Monument","address": "г. Сестрорецк, Улица Новая.","lat": "60.091575","lng": "29.943502"},{"id": "2686","name": "Памятник столбам","kind": "Monument","address": "Каменностровский проспект, д. 5.","lat": "59.95776","lng": "30.319709"},{"id": "2676","name": "Эшафот в Петропавловской крепости","kind": "Monument","address": "Петропавловская крепость.","lat": "59.94921","lng": "30.316304"},{"id": "2674","name": "Для любителей старинных орудий","kind": "Monument","address": "Петропавловская крепость.","lat": "59.950072","lng": "30.319908"},{"id": "2669","name": "Памятник 'Стерегущему' в Александровском парке","kind": "Monument","address": "Александровский парк.","lat": "59.955309","lng": "30.32064"},{"id": "2661","name": "Парковое кресло","kind": "Monument","address": "Сестрорецк .","lat": "60.090646","lng": "29.93349"},{"id": "2660","name": "Дуб","kind": "Monument","address": "г. Сестрорецк, Дубковое шоссе.","lat": "60.089574","lng": "29.928856"},{"id": "2653","name": "Горизонтальный лифт петербургского метро","kind": "Monument","address": "Закрытые станции метро.","lat": "59.931427","lng": "30.355178"},{"id": "2620","name": "Ваза","kind": "Monument","address": "Набережная реки Карповки, д. 9.","lat": "59.968059","lng": "30.315264"},{"id": "2611","name": "Мост над фонтаном - поилкой","kind": "Monument","address": "ул. Большая Московская, д. 6.","lat": "59.926629","lng": "30.347761"},{"id": "2610","name": "Пальмы-фонари","kind": "Monument","address": "ул. Таллинская, д. 11.","lat": "59.925272","lng": "30.419597"},{"id": "2604","name": "Подводная лодка","kind": "Monument","address": "ЦПКиО .","lat": "59.979627","lng": "30.264284"},{"id": "2584","name": "Снопы","kind": "Monument","address": "пос. Шушары, ул. Школьная, д. 2.","lat": "59.810256","lng": "30.380996"},{"id": "2577","name": "Шалаш Ильича в Разливе","kind": "Monument","address": "г. Сестрорецк, Разлив.","lat": "60.072508","lng": "30.019738"},{"id": "2571","name": "Скамейка в Фонтанном доме","kind": "Monument","address": "Литейный проспект, д. 53.","lat": "59.936048","lng": "30.34774"},